id,cod_pcia,nom_pcia,cod_depto,nom_depto,cod_ase,nombre,tipo,cod_aglo,nom_aglo,cod_agl,nom_agl,lat_gd,long_gd,lat_gs,long_gs,fuente
780,"06",Buenos Aires,"06021",Alberti,06021A06,Palantelén,Paraje,,,"060021",Alberti,"-35.167391","-60.334732","-35º10' 3""","-60º20' 5""",INDEC. ACA
851,"06",Buenos Aires,"06049",Azul,06049A30,Vicente Pereda,Paraje,,,"060049",Azul,"-36.698608","-59.782276","-36º41'55""","-59º46'56""",INDEC. ACA
446,"14",Córdoba,"14014",Capital,"1401401002",La Floresta,Entidad,"0002",Gran Córdoba,"140077",Córdoba,"-31.396847","-64.059869","-31º23'49""","-64º 3'36""",INDEC
572,"50",Mendoza,"50028",Guaymallén,"5002802001",Bermejo,Entidad,"0004",Gran Mendoza,"500028",Guaymallén,"-32.867313","-68.779540","-32º52' 2""","-68º46'46""",INDEC
1324,"06",Buenos Aires,"06231",Daireaux,06231A09,Luro,Paraje,,,"060231",Daireaux,"-36.650001","-62.117106","-36º39' 0""","-62º 7' 2""",IGN. SIG 250
1519,"06",Buenos Aires,"06343",General Paz,06343A10,La Soledad,Paraje,,,"060343",General Paz,"-35.386414","-58.271541","-35º23'11""","-58º16'18""",INDEC. ACA
2267,"06",Buenos Aires,"06686",Rojas,"06686060",Rojas,Localidad simple,"0151",Rojas,"060686",Rojas,"-34.197742","-60.733701","-34º11'52""","-60º44' 1""",INDEC
2509,"06",Buenos Aires,"06798",Tapalqué,06798A00,Altona,Paraje,,,"060798",Tapalqué,"-36.474660","-60.122331","-36º28'29""","-60º 7'20""",Mapa Educativo (GPS)
2608,"06",Buenos Aires,"06833",Tres Arroyos,06833A07,La Curva,Paraje,,,"060833",Tres Arroyos,"-38.757920","-59.986903","-38º45'29""","-59º59'13""",INDEC. ACA
5445,"22",Chaco,"22028",Chacabuco,22028A11,Pampa del Cielo,Paraje,,,"220084",Charata,"-27.156802","-61.140805","-27º 9'24""","-61º 8'27""",INDEC. ACA
6340,"26",Chubut,"26091",Sarmiento,26091A01,Colhué Huapi,Paraje,,,"260140",Sarmiento,"-45.712573","-68.928054","-45º42'45""","-68º55'41""",INDEC. ACA
7144,"34",Formosa,"34028",Matacos,34028A00,Agua Verde,Paraje,,,"340000",sin gobierno local,"-23.675998","-62.310333","-23º40'34""","-62º18'37""",Mapa Educativo
7747,"38",Jujuy,"38084",Susques,38084A01,Archibarca,Paraje,,,"386154",Catua,"-23.625899","-66.847953","-23º37'33""","-66º50'53""",INDEC. ACA
9740,"58",Neuquén,"58091",Pehuenches,58091A04,Chadileu,Paraje,,,"580196",Barrancas,"-36.728605","-70.034777","-36º43'43""","-70º 2' 5""",INDEC. ACA
10473,"66",Salta,"66091",La Poma,66091A17,Muñano,Paraje,,,"660224",La Poma,"-24.290868","-66.151337","-24º17'27""","-66º 9' 5""",INDEC. ACA
11714,"82",Santa Fe,"82007",Belgrano,"82007020",Bouquet,Localidad simple,"1145",Bouquet,"822007",Bouquet,"-32.423632","-61.889736","-32º25'25""","-61º53'23""",INDEC
56,"06",Buenos Aires,"06028",Almirante Brown,"0602801008",Malvinas Argentinas,Entidad,"0001",Gran Buenos Aires,"060028",Almirante Brown,"-34.818755","-58.423388","-34º49' 8""","-58º25'24""",INDEC
57,"06",Buenos Aires,"06028",Almirante Brown,"0602801009",Ministro Rivadavia,Entidad,"0001",Gran Buenos Aires,"060028",Almirante Brown,"-34.844021","-58.362754","-34º50'38""","-58º21'46""",INDEC
49,"06",Buenos Aires,"06028",Almirante Brown,"0602801001",Adrogué,Entidad,"0001",Gran Buenos Aires,"060028",Almirante Brown,"-34.797373","-58.388453","-34º47'51""","-58º23'18""",INDEC
50,"06",Buenos Aires,"06028",Almirante Brown,"0602801002",Burzaco,Entidad,"0001",Gran Buenos Aires,"060028",Almirante Brown,"-34.828172","-58.391034","-34º49'41""","-58º23'28""",INDEC
51,"06",Buenos Aires,"06028",Almirante Brown,"0602801003",Claypole,Entidad,"0001",Gran Buenos Aires,"060028",Almirante Brown,"-34.797559","-58.335204","-34º47'51""","-58º20' 7""",INDEC
52,"06",Buenos Aires,"06028",Almirante Brown,"0602801004",Don Orione,Entidad,"0001",Gran Buenos Aires,"060028",Almirante Brown,"-34.819292","-58.341854","-34º49' 9""","-58º20'31""",INDEC
53,"06",Buenos Aires,"06028",Almirante Brown,"0602801005",Glew,Entidad,"0001",Gran Buenos Aires,"060028",Almirante Brown,"-34.888336","-58.382787","-34º53'18""","-58º22'58""",INDEC
54,"06",Buenos Aires,"06028",Almirante Brown,"0602801006",José Mármol,Entidad,"0001",Gran Buenos Aires,"060028",Almirante Brown,"-34.786317","-58.369842","-34º47'11""","-58º22'11""",INDEC
55,"06",Buenos Aires,"06028",Almirante Brown,"0602801007",Longchamps,Entidad,"0001",Gran Buenos Aires,"060028",Almirante Brown,"-34.860730","-58.389185","-34º51'39""","-58º23'21""",INDEC
58,"06",Buenos Aires,"06028",Almirante Brown,"0602801010",Rafael Calzada,Entidad,"0001",Gran Buenos Aires,"060028",Almirante Brown,"-34.797360","-58.361671","-34º47'50""","-58º21'42""",INDEC
59,"06",Buenos Aires,"06028",Almirante Brown,"0602801011",San Francisco Solano,Entidad,"0001",Gran Buenos Aires,"060028",Almirante Brown,"-34.785653","-58.319568","-34º47' 8""","-58º19'10""",INDEC
60,"06",Buenos Aires,"06028",Almirante Brown,"0602801012",San José,Entidad,"0001",Gran Buenos Aires,"060028",Almirante Brown,"-34.763632","-58.343391","-34º45'49""","-58º20'36""",INDEC
61,"06",Buenos Aires,"06035",Avellaneda,"0603501005",Gerli,Entidad,"0001",Gran Buenos Aires,"060035",Avellaneda,"-34.683773","-58.374441","-34º41' 2""","-58º22'28""",INDEC
62,"06",Buenos Aires,"06035",Avellaneda,"0603501006",Piñeyro,Entidad,"0001",Gran Buenos Aires,"060035",Avellaneda,"-34.668084","-58.387747","-34º40' 5""","-58º23'16""",INDEC
63,"06",Buenos Aires,"06035",Avellaneda,"0603501007",Sarandí,Entidad,"0001",Gran Buenos Aires,"060035",Avellaneda,"-34.681796","-58.346311","-34º40'54""","-58º20'47""",INDEC
64,"06",Buenos Aires,"06035",Avellaneda,"0603501008",Villa Domínico,Entidad,"0001",Gran Buenos Aires,"060035",Avellaneda,"-34.694577","-58.330456","-34º41'40""","-58º19'50""",INDEC
65,"06",Buenos Aires,"06035",Avellaneda,"0603501009",Wilde,Entidad,"0001",Gran Buenos Aires,"060035",Avellaneda,"-34.704079","-58.317210","-34º42'15""","-58º19' 2""",INDEC
66,"06",Buenos Aires,"06035",Avellaneda,"0603501001",Área Reserva Cinturón Ecológico,Entidad,"0001",Gran Buenos Aires,"060035",Avellaneda,"-34.684460","-58.307737","-34º41' 4""","-58º18'28""",INDEC
67,"06",Buenos Aires,"06035",Avellaneda,"0603501002",Avellaneda,Entidad,"0001",Gran Buenos Aires,"060035",Avellaneda,"-34.663830","-58.362737","-34º39'50""","-58º21'46""",INDEC
68,"06",Buenos Aires,"06035",Avellaneda,"0603501003",Crucesita,Entidad,"0001",Gran Buenos Aires,"060035",Avellaneda,"-34.667992","-58.357126","-34º40' 5""","-58º21'26""",INDEC
69,"06",Buenos Aires,"06035",Avellaneda,"0603501004",Dock Sud,Entidad,"0001",Gran Buenos Aires,"060035",Avellaneda,"-34.650134","-58.344902","-34º39' 0""","-58º20'42""",INDEC
70,"06",Buenos Aires,"06056",Bahía Blanca,"0605601001",Bahía Blanca,Entidad,"0014",Bahía Blanca,"060056",Bahía Blanca,"-38.722770","-62.272742","-38º43'22""","-62º16'22""",INDEC
71,"06",Buenos Aires,"06056",Bahía Blanca,"0605601002",Grünbein,Entidad,"0014",Bahía Blanca,"060056",Bahía Blanca,"-38.749272","-62.190889","-38º44'57""","-62º11'27""",INDEC
72,"06",Buenos Aires,"06056",Bahía Blanca,"0605601003",Ingeniero White,Entidad,"0014",Bahía Blanca,"060056",Bahía Blanca,"-38.779492","-62.265581","-38º46'46""","-62º15'56""",INDEC
73,"06",Buenos Aires,"06056",Bahía Blanca,"0605601004",Villa Bordeau,Entidad,"0014",Bahía Blanca,"060056",Bahía Blanca,"-38.693559","-62.335017","-38º41'37""","-62º20' 6""",INDEC
74,"06",Buenos Aires,"06056",Bahía Blanca,"0605601005",Villa Espora,Entidad,"0014",Bahía Blanca,"060056",Bahía Blanca,"-38.741416","-62.171375","-38º44'29""","-62º10'17""",INDEC
75,"06",Buenos Aires,"06091",Berazategui,"0609101001",Berazategui,Entidad,"0001",Gran Buenos Aires,"060091",Berazategui,"-34.763016","-58.212169","-34º45'47""","-58º12'44""",INDEC
76,"06",Buenos Aires,"06091",Berazategui,"0609101002",Berazategui Oeste,Entidad,"0001",Gran Buenos Aires,"060091",Berazategui,"-34.777003","-58.238886","-34º46'37""","-58º14'20""",INDEC
77,"06",Buenos Aires,"06091",Berazategui,"0609101003",Carlos Tomás Sourigues,Entidad,"0001",Gran Buenos Aires,"060091",Berazategui,"-34.806252","-58.215388","-34º48'23""","-58º12'55""",INDEC
78,"06",Buenos Aires,"06091",Berazategui,"0609101004",El Pato,Entidad,"0001",Gran Buenos Aires,"060091",Berazategui,"-34.884830","-58.173852","-34º53' 5""","-58º10'26""",INDEC
79,"06",Buenos Aires,"06091",Berazategui,"0609101005",Guillermo Enrique Hudson,Entidad,"0001",Gran Buenos Aires,"060091",Berazategui,"-34.791847","-58.151619","-34º47'31""","-58º 9' 6""",INDEC
778,"06",Buenos Aires,"06021",Alberti,06021A04,Larrea,Paraje,,,"060021",Alberti,"-35.051663","-60.366964","-35º 3' 6""","-60º22' 1""",Mapa Educativo (GPS)
80,"06",Buenos Aires,"06091",Berazategui,"0609101006",Juan María Gutiérrez,Entidad,"0001",Gran Buenos Aires,"060091",Berazategui,"-34.833909","-58.183808","-34º50' 2""","-58º11' 2""",INDEC
81,"06",Buenos Aires,"06091",Berazategui,"0609101007",Pereyra,Entidad,"0001",Gran Buenos Aires,"060091",Berazategui,"-34.836179","-58.094289","-34º50'10""","-58º 5'39""",INDEC
82,"06",Buenos Aires,"06091",Berazategui,"0609101008",Plátanos,Entidad,"0001",Gran Buenos Aires,"060091",Berazategui,"-34.781808","-58.170186","-34º46'55""","-58º10'13""",INDEC
83,"06",Buenos Aires,"06091",Berazategui,"0609101009",Ranelagh,Entidad,"0001",Gran Buenos Aires,"060091",Berazategui,"-34.787787","-58.203185","-34º47'16""","-58º12'11""",INDEC
84,"06",Buenos Aires,"06091",Berazategui,"0609101010",Villa España,Entidad,"0001",Gran Buenos Aires,"060091",Berazategui,"-34.775472","-58.199442","-34º46'32""","-58º11'58""",INDEC
85,"06",Buenos Aires,"06098",Berisso,"0609801001",Barrio Banco Provincia,Entidad,"0005",Gran La Plata,"060098",Berisso,"-34.874295","-57.854726","-34º52'27""","-57º51'17""",INDEC
86,"06",Buenos Aires,"06098",Berisso,"0609801002",Barrio El Carmen Este,Entidad,"0005",Gran La Plata,"060098",Berisso,"-34.930281","-57.885311","-34º55'49""","-57º53' 7""",INDEC
87,"06",Buenos Aires,"06098",Berisso,"0609801003",Barrio Universitario,Entidad,"0005",Gran La Plata,"060098",Berisso,"-34.902348","-57.924829","-34º54' 8""","-57º55'29""",INDEC
88,"06",Buenos Aires,"06098",Berisso,"0609801004",Berisso,Entidad,"0005",Gran La Plata,"060098",Berisso,"-34.870294","-57.883325","-34º52'13""","-57º52'60""",INDEC
89,"06",Buenos Aires,"06098",Berisso,"0609801005",Los Talas,Entidad,"0005",Gran La Plata,"060098",Berisso,"-34.911024","-57.784269","-34º54'40""","-57º47' 3""",INDEC
90,"06",Buenos Aires,"06098",Berisso,"0609801006",Villa Argüello,Entidad,"0005",Gran La Plata,"060098",Berisso,"-34.906933","-57.916348","-34º54'25""","-57º54'59""",INDEC
91,"06",Buenos Aires,"06098",Berisso,"0609801007",Villa Dolores,Entidad,"0005",Gran La Plata,"060098",Berisso,"-34.878731","-57.867376","-34º52'43""","-57º52' 3""",INDEC
92,"06",Buenos Aires,"06098",Berisso,"0609801008",Villa Independencia,Entidad,"0005",Gran La Plata,"060098",Berisso,"-34.882168","-57.859509","-34º52'56""","-57º51'34""",INDEC
93,"06",Buenos Aires,"06098",Berisso,"0609801009",Villa Nueva,Entidad,"0005",Gran La Plata,"060098",Berisso,"-34.895272","-57.907496","-34º53'43""","-57º54'27""",INDEC
94,"06",Buenos Aires,"06098",Berisso,"0609801010",Villa Porteña,Entidad,"0005",Gran La Plata,"060098",Berisso,"-34.887155","-57.898086","-34º53'14""","-57º53'53""",INDEC
95,"06",Buenos Aires,"06098",Berisso,"0609801011",Villa Progreso,Entidad,"0005",Gran La Plata,"060098",Berisso,"-34.924053","-57.899885","-34º55'27""","-57º53'60""",INDEC
96,"06",Buenos Aires,"06098",Berisso,"0609801012",Villa San Carlos,Entidad,"0005",Gran La Plata,"060098",Berisso,"-34.876971","-57.874397","-34º52'37""","-57º52'28""",INDEC
97,"06",Buenos Aires,"06098",Berisso,"0609801013",Villa Zula,Entidad,"0005",Gran La Plata,"060098",Berisso,"-34.882976","-57.844716","-34º52'59""","-57º50'41""",INDEC
98,"06",Buenos Aires,"06134",Cañuelas,"0613405001",Barrio Belgrano,Entidad,"0001",Gran Buenos Aires,"060134",Cañuelas,"-34.898994","-58.651376","-34º53'56""","-58º39' 5""",INDEC
99,"06",Buenos Aires,"06134",Cañuelas,"0613405002",Máximo Paz,Entidad,"0001",Gran Buenos Aires,"060134",Cañuelas,"-34.939420","-58.616032","-34º56'22""","-58º36'58""",INDEC
100,"06",Buenos Aires,"06182",Coronel de Marina Leonardo Rosales,"0618203001",Punta Alta,Entidad,"0052",Punta Alta,"060182",Coronel de Marina L. Rosales,"-38.878173","-62.079480","-38º52'41""","-62º 4'46""",INDEC
101,"06",Buenos Aires,"06182",Coronel de Marina Leonardo Rosales,"0618203002",Villa del Mar,Entidad,"0052",Punta Alta,"060182",Coronel de Marina L. Rosales,"-38.854389","-62.116521","-38º51'16""","-62º 6'59""",INDEC
102,"06",Buenos Aires,"06218",Chascomús,"0621801001",Chascomús,Entidad,"0101",Chascomús,"060218",Chascomús,"-35.574206","-58.011281","-35º34'27""","-58º 0'41""",INDEC
103,"06",Buenos Aires,"06218",Chascomús,"0621801003",Barrio San Cayetano,Entidad,"0101",Chascomús,"060218",Chascomús,"-35.535390","-58.013995","-35º32' 7""","-58º 0'50""",INDEC
104,"06",Buenos Aires,"06245",Ensenada,"0624501001",Dique N° 1,Entidad,"0005",Gran La Plata,"060245",Ensenada,"-34.894788","-57.934267","-34º53'41""","-57º56' 3""",INDEC
105,"06",Buenos Aires,"06245",Ensenada,"0624501002",Ensenada,Entidad,"0005",Gran La Plata,"060245",Ensenada,"-34.862418","-57.908942","-34º51'45""","-57º54'32""",INDEC
106,"06",Buenos Aires,"06245",Ensenada,"0624501003",Isla Santiago,Entidad,"0005",Gran La Plata,"060245",Ensenada,"-34.845520","-57.894783","-34º50'44""","-57º53'41""",INDEC
107,"06",Buenos Aires,"06245",Ensenada,"0624501004",Punta Lara,Entidad,"0005",Gran La Plata,"060245",Ensenada,"-34.809816","-57.983799","-34º48'35""","-57º59' 2""",INDEC
108,"06",Buenos Aires,"06245",Ensenada,"0624501005",Villa Catela,Entidad,"0005",Gran La Plata,"060245",Ensenada,"-34.887186","-57.948424","-34º53'14""","-57º56'54""",INDEC
109,"06",Buenos Aires,"06252",Escobar,"0625201001",Belén de Escobar,Entidad,"0001",Gran Buenos Aires,"060252",Escobar,"-34.345471","-58.792810","-34º20'44""","-58º47'34""",INDEC
110,"06",Buenos Aires,"06252",Escobar,"0625201002",El Cazador,Entidad,"0001",Gran Buenos Aires,"060252",Escobar,"-34.311523","-58.764346","-34º18'41""","-58º45'52""",INDEC
111,"06",Buenos Aires,"06252",Escobar,"0625201003",Garín,Entidad,"0001",Gran Buenos Aires,"060252",Escobar,"-34.423034","-58.739461","-34º25'23""","-58º44'22""",INDEC
779,"06",Buenos Aires,"06021",Alberti,06021A05,Los Carrizales,Paraje,,,"060021",Alberti,"-35.006758","-60.408564","-35º 0'24""","-60º24'31""",INDEC. ACA
112,"06",Buenos Aires,"06252",Escobar,"0625201004",Ingeniero Maschwitz,Entidad,"0001",Gran Buenos Aires,"060252",Escobar,"-34.389235","-58.737867","-34º23'21""","-58º44'16""",INDEC
113,"06",Buenos Aires,"06252",Escobar,"0625201005",Loma Verde,Entidad,"0001",Gran Buenos Aires,"060252",Escobar,"-34.330701","-58.845808","-34º19'51""","-58º50'45""",INDEC
114,"06",Buenos Aires,"06252",Escobar,"0625201006",Matheu,Entidad,"0001",Gran Buenos Aires,"060252",Escobar,"-34.385245","-58.827806","-34º23' 7""","-58º49'40""",INDEC
115,"06",Buenos Aires,"06252",Escobar,"0625201007",Maquinista F. Savio Este,Entidad,"0001",Gran Buenos Aires,"060252",Escobar,"-34.400650","-58.776292","-34º24' 2""","-58º46'35""",INDEC
116,"06",Buenos Aires,"06260",Esteban Echeverría,"0626001001",Canning,Entidad,"0001",Gran Buenos Aires,"060260",Esteban Echeverría,"-34.857018","-58.497907","-34º51'25""","-58º29'52""",INDEC
117,"06",Buenos Aires,"06260",Esteban Echeverría,"0626001002",El Jagüel,Entidad,"0001",Gran Buenos Aires,"060260",Esteban Echeverría,"-34.830853","-58.494884","-34º49'51""","-58º29'42""",INDEC
118,"06",Buenos Aires,"06260",Esteban Echeverría,"0626001003",Luis Guillón,Entidad,"0001",Gran Buenos Aires,"060260",Esteban Echeverría,"-34.802642","-58.450675","-34º48'10""","-58º27' 2""",INDEC
119,"06",Buenos Aires,"06260",Esteban Echeverría,"0626001004",Monte Grande,Entidad,"0001",Gran Buenos Aires,"060260",Esteban Echeverría,"-34.816356","-58.468264","-34º48'59""","-58º28' 6""",INDEC
120,"06",Buenos Aires,"06260",Esteban Echeverría,"0626001005",9 de Abril,Entidad,"0001",Gran Buenos Aires,"060260",Esteban Echeverría,"-34.762788","-58.487548","-34º45'46""","-58º29'15""",INDEC
121,"06",Buenos Aires,"06266",Exaltación de la Cruz,"0626606001",El Remanso,Entidad,"1701",Parada Robles - Pavón,"060266",Exaltación de la Cruz,"-34.389772","-59.080778","-34º23'23""","-59º 4'51""",INDEC
295,"06",Buenos Aires,"06568",Morón,"0656801004",Morón,Entidad,"0001",Gran Buenos Aires,"060568",Morón,"-34.647457","-58.621862","-34º38'51""","-58º37'19""",INDEC
122,"06",Buenos Aires,"06266",Exaltación de la Cruz,"0626606002",Parada Robles,Entidad,"1701",Parada Robles - Pavón,"060266",Exaltación de la Cruz,"-34.371892","-59.124684","-34º22'19""","-59º 7'29""",INDEC
123,"06",Buenos Aires,"06266",Exaltación de la Cruz,"0626606003",Pavón,Entidad,"1701",Parada Robles - Pavón,"060266",Exaltación de la Cruz,"-34.393180","-59.034704","-34º23'35""","-59º 2' 5""",INDEC
124,"06",Buenos Aires,"06270",Ezeiza,"0627001001",Aeropuerto Internacional Ezeiza,Entidad,"0001",Gran Buenos Aires,"060270",Ezeiza,"-34.792504","-58.524640","-34º47'33""","-58º31'29""",INDEC
125,"06",Buenos Aires,"06270",Ezeiza,"0627001002",Canning,Entidad,"0001",Gran Buenos Aires,"060270",Ezeiza,"-34.877394","-58.507533","-34º52'39""","-58º30'27""",INDEC
126,"06",Buenos Aires,"06270",Ezeiza,"0627001003",Carlos Spegazzini,Entidad,"0001",Gran Buenos Aires,"060270",Ezeiza,"-34.911747","-58.592167","-34º54'42""","-58º35'32""",INDEC
127,"06",Buenos Aires,"06270",Ezeiza,"0627001004",José María Ezeiza,Entidad,"0001",Gran Buenos Aires,"060270",Ezeiza,"-34.852762","-58.523201","-34º51'10""","-58º31'24""",INDEC
128,"06",Buenos Aires,"06270",Ezeiza,"0627001005",La Unión,Entidad,"0001",Gran Buenos Aires,"060270",Ezeiza,"-34.875566","-58.541981","-34º52'32""","-58º32'31""",INDEC
129,"06",Buenos Aires,"06270",Ezeiza,"0627001006",Tristán Suárez,Entidad,"0001",Gran Buenos Aires,"060270",Ezeiza,"-34.890959","-58.566554","-34º53'27""","-58º33'60""",INDEC
130,"06",Buenos Aires,"06274",Florencio Varela,"0627401001",Bosques,Entidad,"0001",Gran Buenos Aires,"060274",Florencio Varela,"-34.816611","-58.231314","-34º48'60""","-58º13'53""",INDEC
131,"06",Buenos Aires,"06274",Florencio Varela,"0627401002",Estanislao Severo Zeballos,Entidad,"0001",Gran Buenos Aires,"060274",Florencio Varela,"-34.814180","-58.241218","-34º48'51""","-58º14'28""",INDEC
132,"06",Buenos Aires,"06274",Florencio Varela,"0627401003",San Juan Bautista,Entidad,"0001",Gran Buenos Aires,"060274",Florencio Varela,"-34.808986","-58.276150","-34º48'32""","-58º16'34""",INDEC
133,"06",Buenos Aires,"06274",Florencio Varela,"0627401004",Gobernador Julio A. Costa,Entidad,"0001",Gran Buenos Aires,"060274",Florencio Varela,"-34.807548","-58.303851","-34º48'27""","-58º18'14""",INDEC
134,"06",Buenos Aires,"06274",Florencio Varela,"0627401005",Ingeniero Juan Allan,Entidad,"0001",Gran Buenos Aires,"060274",Florencio Varela,"-34.866683","-58.198557","-34º52' 0""","-58º11'55""",INDEC
135,"06",Buenos Aires,"06274",Florencio Varela,"0627401006",Villa Brown,Entidad,"0001",Gran Buenos Aires,"060274",Florencio Varela,"-34.871296","-58.275495","-34º52'17""","-58º16'32""",INDEC
136,"06",Buenos Aires,"06274",Florencio Varela,"0627401007",Villa San Luis,Entidad,"0001",Gran Buenos Aires,"060274",Florencio Varela,"-34.857377","-58.273813","-34º51'27""","-58º16'26""",INDEC
137,"06",Buenos Aires,"06274",Florencio Varela,"0627401008",Villa Santa Rosa,Entidad,"0001",Gran Buenos Aires,"060274",Florencio Varela,"-34.837064","-58.282180","-34º50'13""","-58º16'56""",INDEC
138,"06",Buenos Aires,"06274",Florencio Varela,"0627401009",Villa Vatteone,Entidad,"0001",Gran Buenos Aires,"060274",Florencio Varela,"-34.826974","-58.271402","-34º49'37""","-58º16'17""",INDEC
139,"06",Buenos Aires,"06274",Florencio Varela,"0627401010",El Tropezón,Entidad,"0001",Gran Buenos Aires,"060274",Florencio Varela,"-34.946524","-58.267275","-34º56'47""","-58º16' 2""",INDEC
140,"06",Buenos Aires,"06274",Florencio Varela,"0627401011",La Capilla,Entidad,"0001",Gran Buenos Aires,"060274",Florencio Varela,"-34.925692","-58.264698","-34º55'32""","-58º15'53""",INDEC
141,"06",Buenos Aires,"06315",General Juan Madariaga,"0631501001",Barrio Kennedy,Entidad,"0178",General Juan Madariaga,"060315",General Juan Madariaga,"-37.020287","-57.103388","-37º 1'13""","-57º 6'12""",INDEC
142,"06",Buenos Aires,"06315",General Juan Madariaga,"0631501002",General Juan Madariaga,Entidad,"0178",General Juan Madariaga,"060315",General Juan Madariaga,"-37.001958","-57.135838","-37º 0' 7""","-57º 8' 9""",INDEC
143,"06",Buenos Aires,"06357",General Pueyrredón,"0635711001",Camet,Entidad,"0007",Mar del Plata,"060357",General Pueyrredón,"-37.940141","-57.549942","-37º56'25""","-57º32'60""",INDEC
144,"06",Buenos Aires,"06357",General Pueyrredón,"0635711002",Estación Camet,Entidad,"0007",Mar del Plata,"060357",General Pueyrredón,"-37.888422","-57.606946","-37º53'18""","-57º36'25""",INDEC
145,"06",Buenos Aires,"06357",General Pueyrredón,"0635711003",Mar del Plata,Entidad,"0007",Mar del Plata,"060357",General Pueyrredón,"-38.006449","-57.543838","-38º 0'23""","-57º32'38""",INDEC
146,"06",Buenos Aires,"06357",General Pueyrredón,"0635711004",Punta Mogotes,Entidad,"0007",Mar del Plata,"060357",General Pueyrredón,"-38.066953","-57.551039","-38º 4' 1""","-57º33' 4""",INDEC
147,"06",Buenos Aires,"06357",General Pueyrredón,"0635711005",Barrio El Casal,Entidad,"0007",Mar del Plata,"060357",General Pueyrredón,"-37.831596","-57.622111","-37º49'54""","-57º37'20""",INDEC
148,"06",Buenos Aires,"06357",General Pueyrredón,"0635712001",Barrio Colinas Verdes,Entidad,"2048",Sierra de los Padres,"060357",General Pueyrredón,"-37.892525","-57.824525","-37º53'33""","-57º49'28""",INDEC
149,"06",Buenos Aires,"06357",General Pueyrredón,"0635712002",Barrio El Coyunco,Entidad,"2048",Sierra de los Padres,"060357",General Pueyrredón,"-37.910501","-57.748810","-37º54'38""","-57º44'56""",INDEC
225,"06",Buenos Aires,"06441",La Plata,"0644103006",Barrio Gambier,Entidad,"0005",Gran La Plata,"060441",La Plata,"-34.936107","-57.984931","-34º56'10""","-57º59' 6""",INDEC
150,"06",Buenos Aires,"06357",General Pueyrredón,"0635712003",Barrio La Gloria,Entidad,"2048",Sierra de los Padres,"060357",General Pueyrredón,"-37.933267","-57.775560","-37º55'60""","-57º46'32""",INDEC
151,"06",Buenos Aires,"06357",General Pueyrredón,"0635712004",Sierra de los Padres,Entidad,"2048",Sierra de los Padres,"060357",General Pueyrredón,"-37.947628","-57.777867","-37º56'51""","-57º46'40""",INDEC
152,"06",Buenos Aires,"06364",General Rodríguez,"0636403001",Barrio Morabo,Entidad,"0001",Gran Buenos Aires,"060364",General Rodríguez,"-34.556685","-58.938385","-34º33'24""","-58º56'18""",INDEC
153,"06",Buenos Aires,"06364",General Rodríguez,"0636403002",Barrio Ruta 24 Kilómetro 10,Entidad,"0001",Gran Buenos Aires,"060364",General Rodríguez,"-34.684306","-58.958293","-34º41' 4""","-58º57'30""",INDEC
154,"06",Buenos Aires,"06364",General Rodríguez,"0636403003",Country Club Bosque Real,Entidad,"0001",Gran Buenos Aires,"060364",General Rodríguez,"-34.589847","-58.906007","-34º35'23""","-58º54'22""",INDEC
155,"06",Buenos Aires,"06364",General Rodríguez,"0636403004",General Rodríguez,Entidad,"0001",Gran Buenos Aires,"060364",General Rodríguez,"-34.608206","-58.951080","-34º36'30""","-58º57' 4""",INDEC
156,"06",Buenos Aires,"06371",General San Martín,"0637101027",Villa Yapeyú,Entidad,"0001",Gran Buenos Aires,"060371",General San Martín,"-34.571503","-58.548625","-34º34'17""","-58º32'55""",INDEC
157,"06",Buenos Aires,"06371",General San Martín,"0637101001",Barrio Parque General San Martín,Entidad,"0001",Gran Buenos Aires,"060371",General San Martín,"-34.565637","-58.586132","-34º33'56""","-58º35'10""",INDEC
158,"06",Buenos Aires,"06371",General San Martín,"0637101002",Billinghurst,Entidad,"0001",Gran Buenos Aires,"060371",General San Martín,"-34.575208","-58.574739","-34º34'31""","-58º34'29""",INDEC
159,"06",Buenos Aires,"06371",General San Martín,"0637101003",Ciudad del Libertador General San Martín,Entidad,"0001",Gran Buenos Aires,"060371",General San Martín,"-34.579252","-58.539172","-34º34'45""","-58º32'21""",INDEC
160,"06",Buenos Aires,"06371",General San Martín,"0637101004",Ciudad Jardín El Libertador,Entidad,"0001",Gran Buenos Aires,"060371",General San Martín,"-34.541968","-58.594840","-34º32'31""","-58º35'41""",INDEC
161,"06",Buenos Aires,"06371",General San Martín,"0637101005",Villa Ayacucho,Entidad,"0001",Gran Buenos Aires,"060371",General San Martín,"-34.589552","-58.553394","-34º35'22""","-58º33'12""",INDEC
162,"06",Buenos Aires,"06371",General San Martín,"0637101006",Villa Ballester,Entidad,"0001",Gran Buenos Aires,"060371",General San Martín,"-34.548083","-58.557084","-34º32'53""","-58º33'26""",INDEC
163,"06",Buenos Aires,"06371",General San Martín,"0637101007",Villa Bernardo Monteagudo,Entidad,"0001",Gran Buenos Aires,"060371",General San Martín,"-34.589533","-58.540871","-34º35'22""","-58º32'27""",INDEC
164,"06",Buenos Aires,"06371",General San Martín,"0637101008",Villa Chacabuco,Entidad,"0001",Gran Buenos Aires,"060371",General San Martín,"-34.582015","-58.527172","-34º34'55""","-58º31'38""",INDEC
165,"06",Buenos Aires,"06371",General San Martín,"0637101009",Villa Coronel José M. Zapiola,Entidad,"0001",Gran Buenos Aires,"060371",General San Martín,"-34.558868","-58.576650","-34º33'32""","-58º34'36""",INDEC
166,"06",Buenos Aires,"06371",General San Martín,"0637101010",Villa General Antonio J. de Sucre,Entidad,"0001",Gran Buenos Aires,"060371",General San Martín,"-34.545939","-58.568708","-34º32'45""","-58º34' 7""",INDEC
167,"06",Buenos Aires,"06371",General San Martín,"0637101011",Villa General Eugenio Necochea,Entidad,"0001",Gran Buenos Aires,"060371",General San Martín,"-34.512498","-58.579833","-34º30'45""","-58º34'47""",INDEC
168,"06",Buenos Aires,"06371",General San Martín,"0637101012",Villa General José Tomás Guido,Entidad,"0001",Gran Buenos Aires,"060371",General San Martín,"-34.552657","-58.567153","-34º33'10""","-58º34' 2""",INDEC
169,"06",Buenos Aires,"06371",General San Martín,"0637101013",Villa General Juan G. Las Heras,Entidad,"0001",Gran Buenos Aires,"060371",General San Martín,"-34.560540","-58.558541","-34º33'38""","-58º33'31""",INDEC
170,"06",Buenos Aires,"06371",General San Martín,"0637101014",Villa Godoy Cruz,Entidad,"0001",Gran Buenos Aires,"060371",General San Martín,"-34.542749","-58.576523","-34º32'34""","-58º34'35""",INDEC
171,"06",Buenos Aires,"06371",General San Martín,"0637101015",Villa Granaderos de San Martín,Entidad,"0001",Gran Buenos Aires,"060371",General San Martín,"-34.551072","-58.528865","-34º33' 4""","-58º31'44""",INDEC
172,"06",Buenos Aires,"06371",General San Martín,"0637101016",Villa Gregoria Matorras,Entidad,"0001",Gran Buenos Aires,"060371",General San Martín,"-34.538068","-58.549091","-34º32'17""","-58º32'57""",INDEC
173,"06",Buenos Aires,"06371",General San Martín,"0637101017",Villa José León Suárez,Entidad,"0001",Gran Buenos Aires,"060371",General San Martín,"-34.530995","-58.576311","-34º31'52""","-58º34'35""",INDEC
174,"06",Buenos Aires,"06371",General San Martín,"0637101018",Villa Juan Martín de Pueyrredón,Entidad,"0001",Gran Buenos Aires,"060371",General San Martín,"-34.572067","-58.562337","-34º34'19""","-58º33'44""",INDEC
175,"06",Buenos Aires,"06371",General San Martín,"0637101019",Villa Libertad,Entidad,"0001",Gran Buenos Aires,"060371",General San Martín,"-34.584278","-58.562612","-34º35' 3""","-58º33'45""",INDEC
176,"06",Buenos Aires,"06371",General San Martín,"0637101020",Villa Lynch,Entidad,"0001",Gran Buenos Aires,"060371",General San Martín,"-34.592143","-58.524059","-34º35'32""","-58º31'27""",INDEC
177,"06",Buenos Aires,"06371",General San Martín,"0637101021",Villa Maipú,Entidad,"0001",Gran Buenos Aires,"060371",General San Martín,"-34.568895","-58.524441","-34º34' 8""","-58º31'28""",INDEC
178,"06",Buenos Aires,"06371",General San Martín,"0637101022",Va.María Irene de los Remedios Escalada,Entidad,"0001",Gran Buenos Aires,"060371",General San Martín,"-34.564911","-58.592619","-34º33'54""","-58º35'33""",INDEC
179,"06",Buenos Aires,"06371",General San Martín,"0637101023",Va.Marqués Alejandro María de Aguado,Entidad,"0001",Gran Buenos Aires,"060371",General San Martín,"-34.556362","-58.538825","-34º33'23""","-58º32'20""",INDEC
180,"06",Buenos Aires,"06371",General San Martín,"0637101024",Villa Parque Presidente Figueroa Alcorta,Entidad,"0001",Gran Buenos Aires,"060371",General San Martín,"-34.594521","-58.532530","-34º35'40""","-58º31'57""",INDEC
181,"06",Buenos Aires,"06371",General San Martín,"0637101025",Villa Parque San Lorenzo,Entidad,"0001",Gran Buenos Aires,"060371",General San Martín,"-34.563591","-58.533178","-34º33'49""","-58º31'59""",INDEC
182,"06",Buenos Aires,"06371",General San Martín,"0637101026",Villa San Andrés,Entidad,"0001",Gran Buenos Aires,"060371",General San Martín,"-34.565074","-58.541871","-34º33'54""","-58º32'31""",INDEC
183,"06",Buenos Aires,"06408",Hurlingham,"0640801001",Hurlingham,Entidad,"0001",Gran Buenos Aires,"060408",Hurlingham,"-34.589838","-58.637417","-34º35'23""","-58º38'15""",INDEC
184,"06",Buenos Aires,"06408",Hurlingham,"0640801002",Villa Santos Tesei,Entidad,"0001",Gran Buenos Aires,"060408",Hurlingham,"-34.619959","-58.640162","-34º37'12""","-58º38'25""",INDEC
185,"06",Buenos Aires,"06408",Hurlingham,"0640801003",William C. Morris,Entidad,"0001",Gran Buenos Aires,"060408",Hurlingham,"-34.579698","-58.657078","-34º34'47""","-58º39'25""",INDEC
186,"06",Buenos Aires,"06410",Ituzaingó,"0641001001",Ituzaingó Centro,Entidad,"0001",Gran Buenos Aires,"060410",Ituzaingó,"-34.650604","-58.671722","-34º39' 2""","-58º40'18""",INDEC
187,"06",Buenos Aires,"06410",Ituzaingó,"0641001002",Ituzaingó Sur,Entidad,"0001",Gran Buenos Aires,"060410",Ituzaingó,"-34.663766","-58.665478","-34º39'50""","-58º39'56""",INDEC
188,"06",Buenos Aires,"06410",Ituzaingó,"0641001003",Villa Gobernador Udadondo,Entidad,"0001",Gran Buenos Aires,"060410",Ituzaingó,"-34.618346","-58.696724","-34º37' 6""","-58º41'48""",INDEC
189,"06",Buenos Aires,"06412",José C. Paz,"0641201001",Del Viso,Entidad,"0001",Gran Buenos Aires,"060412",José C. Paz,"-34.476082","-58.799352","-34º28'34""","-58º47'58""",INDEC
190,"06",Buenos Aires,"06412",José C. Paz,"0641201002",José C. Paz,Entidad,"0001",Gran Buenos Aires,"060412",José C. Paz,"-34.521746","-58.755374","-34º31'18""","-58º45'19""",INDEC
191,"06",Buenos Aires,"06412",José C. Paz,"0641201003",Tortuguitas,Entidad,"0001",Gran Buenos Aires,"060412",José C. Paz,"-34.488215","-58.778268","-34º29'18""","-58º46'42""",INDEC
192,"06",Buenos Aires,"06420",La Costa,"0642002001",Aguas Verdes,Entidad,"0160",Mar de Ajó - San Bernardo,"060420",La Costa,"-36.636889","-56.690059","-36º38'13""","-56º41'24""",INDEC
193,"06",Buenos Aires,"06420",La Costa,"0642002002",Lucila del Mar,Entidad,"0160",Mar de Ajó - San Bernardo,"060420",La Costa,"-36.660155","-56.682460","-36º39'37""","-56º40'57""",INDEC
194,"06",Buenos Aires,"06420",La Costa,"0642002003",Mar de Ajó,Entidad,"0160",Mar de Ajó - San Bernardo,"060420",La Costa,"-36.729555","-56.677296","-36º43'46""","-56º40'38""",INDEC
195,"06",Buenos Aires,"06420",La Costa,"0642002004",Mar de Ajó Norte,Entidad,"0160",Mar de Ajó - San Bernardo,"060420",La Costa,"-36.717112","-56.677067","-36º43' 2""","-56º40'37""",INDEC
196,"06",Buenos Aires,"06420",La Costa,"0642002005",San Bernardo,Entidad,"0160",Mar de Ajó - San Bernardo,"060420",La Costa,"-36.686792","-56.679061","-36º41'12""","-56º40'45""",INDEC
197,"06",Buenos Aires,"06420",La Costa,"0642004001",Mar del Tuyú,Entidad,"0206",Santa Teresita - Mar del Tuyú,"060420",La Costa,"-36.573877","-56.690890","-36º34'26""","-56º41'27""",INDEC
198,"06",Buenos Aires,"06420",La Costa,"0642004002",Santa Teresita,Entidad,"0206",Santa Teresita - Mar del Tuyú,"060420",La Costa,"-36.540593","-56.692941","-36º32'26""","-56º41'35""",INDEC
199,"06",Buenos Aires,"06427",La Matanza,"0642701001",Aldo Bonzi,Entidad,"0001",Gran Buenos Aires,"060427",La Matanza,"-34.706984","-58.519169","-34º42'25""","-58º31' 9""",INDEC
200,"06",Buenos Aires,"06427",La Matanza,"0642701002",Ciudad Evita,Entidad,"0001",Gran Buenos Aires,"060427",La Matanza,"-34.715773","-58.534946","-34º42'57""","-58º32' 6""",INDEC
201,"06",Buenos Aires,"06427",La Matanza,"0642701003",González Catán,Entidad,"0001",Gran Buenos Aires,"060427",La Matanza,"-34.773025","-58.644039","-34º46'23""","-58º38'39""",INDEC
202,"06",Buenos Aires,"06427",La Matanza,"0642701004",Gregorio de Laferrere,Entidad,"0001",Gran Buenos Aires,"060427",La Matanza,"-34.746994","-58.589257","-34º44'49""","-58º35'21""",INDEC
203,"06",Buenos Aires,"06427",La Matanza,"0642701005",Isidro Casanova,Entidad,"0001",Gran Buenos Aires,"060427",La Matanza,"-34.710970","-58.585808","-34º42'39""","-58º35' 9""",INDEC
204,"06",Buenos Aires,"06427",La Matanza,"0642701006",La Tablada,Entidad,"0001",Gran Buenos Aires,"060427",La Matanza,"-34.686462","-58.525646","-34º41'11""","-58º31'32""",INDEC
470,"14",Córdoba,"14147",Santa María,"1414719001",Las Quintas,Entidad,"2332",Los Cedros,"143043",Los Cedros,"-31.537683","-64.303445","-31º32'16""","-64º18'12""",INDEC
205,"06",Buenos Aires,"06427",La Matanza,"0642701007",Lomas del Mirador,Entidad,"0001",Gran Buenos Aires,"060427",La Matanza,"-34.665277","-58.531774","-34º39'55""","-58º31'54""",INDEC
206,"06",Buenos Aires,"06427",La Matanza,"0642701008",Rafael Castillo,Entidad,"0001",Gran Buenos Aires,"060427",La Matanza,"-34.709099","-58.625634","-34º42'33""","-58º37'32""",INDEC
207,"06",Buenos Aires,"06427",La Matanza,"0642701009",Ramos Mejía,Entidad,"0001",Gran Buenos Aires,"060427",La Matanza,"-34.645499","-58.559666","-34º38'44""","-58º33'35""",INDEC
208,"06",Buenos Aires,"06427",La Matanza,"0642701010",San Justo,Entidad,"0001",Gran Buenos Aires,"060427",La Matanza,"-34.681142","-58.563739","-34º40'52""","-58º33'49""",INDEC
209,"06",Buenos Aires,"06427",La Matanza,"0642701011",Tapiales,Entidad,"0001",Gran Buenos Aires,"060427",La Matanza,"-34.699052","-58.507858","-34º41'57""","-58º30'28""",INDEC
210,"06",Buenos Aires,"06427",La Matanza,"0642701012",20 de Junio,Entidad,"0001",Gran Buenos Aires,"060427",La Matanza,"-34.776154","-58.729567","-34º46'34""","-58º43'46""",INDEC
211,"06",Buenos Aires,"06427",La Matanza,"0642701013",Villa Eduardo Madero,Entidad,"0001",Gran Buenos Aires,"060427",La Matanza,"-34.688132","-58.493174","-34º41'17""","-58º29'35""",INDEC
212,"06",Buenos Aires,"06427",La Matanza,"0642701014",Villa Luzuriaga,Entidad,"0001",Gran Buenos Aires,"060427",La Matanza,"-34.663531","-58.582392","-34º39'49""","-58º34'57""",INDEC
213,"06",Buenos Aires,"06427",La Matanza,"0642701015",Virrey del Pino,Entidad,"0001",Gran Buenos Aires,"060427",La Matanza,"-34.837654","-58.646968","-34º50'16""","-58º38'49""",INDEC
214,"06",Buenos Aires,"06434",Lanús,"0643401001",Gerli,Entidad,"0001",Gran Buenos Aires,"060434",Lanús,"-34.690832","-58.381932","-34º41'27""","-58º22'55""",INDEC
215,"06",Buenos Aires,"06434",Lanús,"0643401002",Lanús Este,Entidad,"0001",Gran Buenos Aires,"060434",Lanús,"-34.714160","-58.374306","-34º42'51""","-58º22'28""",INDEC
216,"06",Buenos Aires,"06434",Lanús,"0643401003",Lanús Oeste,Entidad,"0001",Gran Buenos Aires,"060434",Lanús,"-34.703771","-58.400560","-34º42'14""","-58º24' 2""",INDEC
217,"06",Buenos Aires,"06434",Lanús,"0643401004",Monte Chingolo,Entidad,"0001",Gran Buenos Aires,"060434",Lanús,"-34.729585","-58.354221","-34º43'47""","-58º21'15""",INDEC
218,"06",Buenos Aires,"06434",Lanús,"0643401005",Remedios de Escalada de San Martín,Entidad,"0001",Gran Buenos Aires,"060434",Lanús,"-34.725910","-58.396702","-34º43'33""","-58º23'48""",INDEC
219,"06",Buenos Aires,"06434",Lanús,"0643401006",Valentín Alsina,Entidad,"0001",Gran Buenos Aires,"060434",Lanús,"-34.671414","-58.409049","-34º40'17""","-58º24'33""",INDEC
220,"06",Buenos Aires,"06441",La Plata,"0644103001",Abasto,Entidad,"0005",Gran La Plata,"060441",La Plata,"-34.986759","-58.090866","-34º59'12""","-58º 5'27""",INDEC
221,"06",Buenos Aires,"06441",La Plata,"0644103002",Ángel Etcheverry,Entidad,"0005",Gran La Plata,"060441",La Plata,"-35.024481","-58.078138","-35º 1'28""","-58º 4'41""",INDEC
222,"06",Buenos Aires,"06441",La Plata,"0644103003",Arana,Entidad,"0005",Gran La Plata,"060441",La Plata,"-34.999603","-57.892466","-34º59'59""","-57º53'33""",INDEC
223,"06",Buenos Aires,"06441",La Plata,"0644103004",Arturo Seguí,Entidad,"0005",Gran La Plata,"060441",La Plata,"-34.891347","-58.131936","-34º53'29""","-58º 7'55""",INDEC
224,"06",Buenos Aires,"06441",La Plata,"0644103005",Barrio El Carmen Oeste,Entidad,"0005",Gran La Plata,"060441",La Plata,"-34.938930","-57.877599","-34º56'20""","-57º52'39""",INDEC
226,"06",Buenos Aires,"06441",La Plata,"0644103007",Barrio Las Malvinas,Entidad,"0005",Gran La Plata,"060441",La Plata,"-34.934332","-58.001725","-34º56' 4""","-58º 0' 6""",INDEC
227,"06",Buenos Aires,"06441",La Plata,"0644103008",Barrio Las Quintas,Entidad,"0005",Gran La Plata,"060441",La Plata,"-34.925118","-58.016473","-34º55'30""","-58º 0'59""",INDEC
228,"06",Buenos Aires,"06441",La Plata,"0644103009",City Bell,Entidad,"0005",Gran La Plata,"060441",La Plata,"-34.867474","-58.047423","-34º52' 3""","-58º 2'51""",INDEC
229,"06",Buenos Aires,"06441",La Plata,"0644103010",El Retiro,Entidad,"0005",Gran La Plata,"060441",La Plata,"-34.948313","-57.994882","-34º56'54""","-57º59'42""",INDEC
230,"06",Buenos Aires,"06441",La Plata,"0644103011",Joaquín Gorina,Entidad,"0005",Gran La Plata,"060441",La Plata,"-34.905447","-58.043637","-34º54'20""","-58º 2'37""",INDEC
231,"06",Buenos Aires,"06441",La Plata,"0644103012",José Hernández,Entidad,"0005",Gran La Plata,"060441",La Plata,"-34.898859","-58.010635","-34º53'56""","-58º 0'38""",INDEC
232,"06",Buenos Aires,"06441",La Plata,"0644103013",José Melchor Romero,Entidad,"0005",Gran La Plata,"060441",La Plata,"-34.945675","-58.036481","-34º56'44""","-58º 2'11""",INDEC
233,"06",Buenos Aires,"06441",La Plata,"0644103014",La Cumbre,Entidad,"0005",Gran La Plata,"060441",La Plata,"-34.923304","-58.003380","-34º55'24""","-58º 0'12""",INDEC
234,"06",Buenos Aires,"06441",La Plata,"0644103015",La Plata,Entidad,"0005",Gran La Plata,"060441",La Plata,"-34.915496","-57.947988","-34º54'56""","-57º56'53""",INDEC
235,"06",Buenos Aires,"06441",La Plata,"0644103016",Lisandro Olmos,Entidad,"0005",Gran La Plata,"060441",La Plata,"-34.999057","-58.048616","-34º59'57""","-58º 2'55""",INDEC
236,"06",Buenos Aires,"06441",La Plata,"0644103017",Los Hornos,Entidad,"0005",Gran La Plata,"060441",La Plata,"-34.959356","-57.980734","-34º57'34""","-57º58'51""",INDEC
237,"06",Buenos Aires,"06441",La Plata,"0644103018",Manuel B. Gonnet,Entidad,"0005",Gran La Plata,"060441",La Plata,"-34.881855","-58.010321","-34º52'55""","-58º 0'37""",INDEC
238,"06",Buenos Aires,"06441",La Plata,"0644103019",Ringuelet,Entidad,"0005",Gran La Plata,"060441",La Plata,"-34.884804","-57.991508","-34º53' 5""","-57º59'29""",INDEC
239,"06",Buenos Aires,"06441",La Plata,"0644103020",Rufino de Elizalde,Entidad,"0005",Gran La Plata,"060441",La Plata,"-34.961255","-57.950382","-34º57'41""","-57º57' 1""",INDEC
240,"06",Buenos Aires,"06441",La Plata,"0644103021",Tolosa,Entidad,"0005",Gran La Plata,"060441",La Plata,"-34.891765","-57.974173","-34º53'30""","-57º58'27""",INDEC
241,"06",Buenos Aires,"06441",La Plata,"0644103022",Transradio,Entidad,"0005",Gran La Plata,"060441",La Plata,"-34.876673","-58.083993","-34º52'36""","-58º 5' 2""",INDEC
242,"06",Buenos Aires,"06441",La Plata,"0644103023",Villa Elisa,Entidad,"0005",Gran La Plata,"060441",La Plata,"-34.851467","-58.085433","-34º51' 5""","-58º 5' 8""",INDEC
243,"06",Buenos Aires,"06441",La Plata,"0644103024",Villa Elvira,Entidad,"0005",Gran La Plata,"060441",La Plata,"-34.939444","-57.920833","-34º56'22""","-57º55'15""",INDEC
244,"06",Buenos Aires,"06441",La Plata,"0644103025",Villa Garibaldi,Entidad,"0005",Gran La Plata,"060441",La Plata,"-34.998965","-57.858363","-34º59'56""","-57º51'30""",INDEC
245,"06",Buenos Aires,"06441",La Plata,"0644103026",Villa Montoro,Entidad,"0005",Gran La Plata,"060441",La Plata,"-34.961436","-57.900571","-34º57'41""","-57º54' 2""",INDEC
246,"06",Buenos Aires,"06441",La Plata,"0644103027",Villa Parque Sicardi,Entidad,"0005",Gran La Plata,"060441",La Plata,"-34.987491","-57.859752","-34º59'15""","-57º51'35""",INDEC
247,"06",Buenos Aires,"06490",Lomas de Zamora,"0649001001",Banfield,Entidad,"0001",Gran Buenos Aires,"060490",Lomas de Zamora,"-34.744714","-58.392926","-34º44'41""","-58º23'35""",INDEC
248,"06",Buenos Aires,"06490",Lomas de Zamora,"0649001002",Llavallol,Entidad,"0001",Gran Buenos Aires,"060490",Lomas de Zamora,"-34.793071","-58.426279","-34º47'35""","-58º25'35""",INDEC
249,"06",Buenos Aires,"06490",Lomas de Zamora,"0649001003",Lomas de Zamora,Entidad,"0001",Gran Buenos Aires,"060490",Lomas de Zamora,"-34.759613","-58.399469","-34º45'35""","-58º23'58""",INDEC
250,"06",Buenos Aires,"06490",Lomas de Zamora,"0649001004",Temperley,Entidad,"0001",Gran Buenos Aires,"060490",Lomas de Zamora,"-34.772602","-58.389596","-34º46'21""","-58º23'23""",INDEC
251,"06",Buenos Aires,"06490",Lomas de Zamora,"0649001005",Turdera,Entidad,"0001",Gran Buenos Aires,"060490",Lomas de Zamora,"-34.790986","-58.405195","-34º47'28""","-58º24'19""",INDEC
252,"06",Buenos Aires,"06490",Lomas de Zamora,"0649001006",Villa Centenario,Entidad,"0001",Gran Buenos Aires,"060490",Lomas de Zamora,"-34.727361","-58.430587","-34º43'38""","-58º25'50""",INDEC
253,"06",Buenos Aires,"06490",Lomas de Zamora,"0649001007",Villa Fiorito,Entidad,"0001",Gran Buenos Aires,"060490",Lomas de Zamora,"-34.705698","-58.444466","-34º42'21""","-58º26'40""",INDEC
254,"06",Buenos Aires,"06497",Luján,"0649706001",Barrio Las Casuarinas,Entidad,"0042",Luján,"060497",Luján,"-34.562405","-59.178260","-34º33'45""","-59º10'42""",INDEC
255,"06",Buenos Aires,"06497",Luján,"0649706002",Cortines,Entidad,"0042",Luján,"060497",Luján,"-34.556552","-59.203985","-34º33'24""","-59º12'14""",INDEC
256,"06",Buenos Aires,"06497",Luján,"0649706003",Lezica y Torrezuri,Entidad,"0042",Luján,"060497",Luján,"-34.585483","-59.058281","-34º35' 8""","-59º 3'30""",INDEC
257,"06",Buenos Aires,"06497",Luján,"0649706004",Luján,Entidad,"0042",Luján,"060497",Luján,"-34.566848","-59.114512","-34º34' 1""","-59º 6'52""",INDEC
258,"06",Buenos Aires,"06497",Luján,"0649706005",Villa Flandria Norte,Entidad,"0042",Luján,"060497",Luján,"-34.574913","-59.179515","-34º34'30""","-59º10'46""",INDEC
259,"06",Buenos Aires,"06497",Luján,"0649706006",Villa Flandria Sur,Entidad,"0042",Luján,"060497",Luján,"-34.598855","-59.177292","-34º35'56""","-59º10'38""",INDEC
260,"06",Buenos Aires,"06497",Luján,"0649706007",Country Club Las Praderas,Entidad,"0042",Luján,"060497",Luján,"-34.518223","-59.092569","-34º31' 6""","-59º 5'33""",INDEC
261,"06",Buenos Aires,"06497",Luján,"0649706008",Open Door,Entidad,"0042",Luján,"060497",Luján,"-34.491492","-59.077505","-34º29'29""","-59º 4'39""",INDEC
262,"06",Buenos Aires,"06515",Malvinas Argentinas,"0651501001",Área de Promoción El Triángulo,Entidad,"0001",Gran Buenos Aires,"060515",Malvinas Argentinas,"-34.455832","-58.708597","-34º27'21""","-58º42'31""",INDEC
263,"06",Buenos Aires,"06515",Malvinas Argentinas,"0651501002",Grand Bourg,Entidad,"0001",Gran Buenos Aires,"060515",Malvinas Argentinas,"-34.489012","-58.726387","-34º29'20""","-58º43'35""",INDEC
264,"06",Buenos Aires,"06515",Malvinas Argentinas,"0651501003",Ingeniero Adolfo Sourdeaux,Entidad,"0001",Gran Buenos Aires,"060515",Malvinas Argentinas,"-34.500471","-58.662036","-34º30' 2""","-58º39'43""",INDEC
265,"06",Buenos Aires,"06515",Malvinas Argentinas,"0651501004",Ingeniero Pablo Nogués,Entidad,"0001",Gran Buenos Aires,"060515",Malvinas Argentinas,"-34.489472","-58.706092","-34º29'22""","-58º42'22""",INDEC
266,"06",Buenos Aires,"06515",Malvinas Argentinas,"0651501005",Los Polvorines,Entidad,"0001",Gran Buenos Aires,"060515",Malvinas Argentinas,"-34.502089","-58.694994","-34º30' 8""","-58º41'42""",INDEC
267,"06",Buenos Aires,"06515",Malvinas Argentinas,"0651501006",Malvinas Argentinas,Entidad,"0001",Gran Buenos Aires,"060515",Malvinas Argentinas,"-34.494744","-58.699633","-34º29'41""","-58º41'59""",INDEC
268,"06",Buenos Aires,"06515",Malvinas Argentinas,"0651501007",Tortuguitas,Entidad,"0001",Gran Buenos Aires,"060515",Malvinas Argentinas,"-34.474517","-58.754946","-34º28'28""","-58º45'18""",INDEC
269,"06",Buenos Aires,"06515",Malvinas Argentinas,"0651501008",Villa de Mayo,Entidad,"0001",Gran Buenos Aires,"060515",Malvinas Argentinas,"-34.506609","-58.678974","-34º30'24""","-58º40'44""",INDEC
270,"06",Buenos Aires,"06518",Mar Chiquita,"0651805001",La Baliza,Entidad,"2131",Mar de Cobo,"060518",Mar Chiquita,"-37.771610","-57.447312","-37º46'18""","-57º26'50""",INDEC
271,"06",Buenos Aires,"06518",Mar Chiquita,"0651805002",La Caleta,Entidad,"2131",Mar de Cobo,"060518",Mar Chiquita,"-37.782645","-57.459855","-37º46'58""","-57º27'35""",INDEC
272,"06",Buenos Aires,"06518",Mar Chiquita,"0651805003",Mar de Cobo,Entidad,"2131",Mar de Cobo,"060518",Mar Chiquita,"-37.776289","-57.451148","-37º46'35""","-57º27' 4""",INDEC
273,"06",Buenos Aires,"06518",Mar Chiquita,"0651806001",Atlántida,Entidad,"0609",Santa Clara del Mar,"060518",Mar Chiquita,"-37.847708","-57.513265","-37º50'52""","-57º30'48""",INDEC
274,"06",Buenos Aires,"06518",Mar Chiquita,"0651806002",Camet Norte,Entidad,"0609",Santa Clara del Mar,"060518",Mar Chiquita,"-37.824483","-57.491850","-37º49'28""","-57º29'31""",INDEC
275,"06",Buenos Aires,"06518",Mar Chiquita,"0651806003",Frente Mar,Entidad,"0609",Santa Clara del Mar,"060518",Mar Chiquita,"-37.858847","-57.513477","-37º51'32""","-57º30'49""",INDEC
276,"06",Buenos Aires,"06518",Mar Chiquita,"0651806004",Playa Dorada,Entidad,"0609",Santa Clara del Mar,"060518",Mar Chiquita,"-37.873491","-57.519182","-37º52'25""","-57º31' 9""",INDEC
277,"06",Buenos Aires,"06518",Mar Chiquita,"0651806005",Santa Clara del Mar,Entidad,"0609",Santa Clara del Mar,"060518",Mar Chiquita,"-37.837444","-57.501998","-37º50'15""","-57º30' 7""",INDEC
278,"06",Buenos Aires,"06518",Mar Chiquita,"0651806006",Santa Elena,Entidad,"0609",Santa Clara del Mar,"060518",Mar Chiquita,"-37.863615","-57.517150","-37º51'49""","-57º31' 2""",INDEC
279,"06",Buenos Aires,"06525",Marcos Paz,"0652502001",Barrio Lisandro de la Torre y Santa Marta,Entidad,"0001",Gran Buenos Aires,"060525",Marcos Paz,"-34.906292","-58.706548","-34º54'23""","-58º42'24""",INDEC
280,"06",Buenos Aires,"06525",Marcos Paz,"0652502002",Marcos Paz,Entidad,"0001",Gran Buenos Aires,"060525",Marcos Paz,"-34.784316","-58.835337","-34º47' 4""","-58º50' 7""",INDEC
281,"06",Buenos Aires,"06539",Merlo,"0653901001",Libertad,Entidad,"0001",Gran Buenos Aires,"060539",Merlo,"-34.698638","-58.690232","-34º41'55""","-58º41'25""",INDEC
282,"06",Buenos Aires,"06539",Merlo,"0653901002",Mariano Acosta,Entidad,"0001",Gran Buenos Aires,"060539",Merlo,"-34.722921","-58.795406","-34º43'23""","-58º47'43""",INDEC
283,"06",Buenos Aires,"06539",Merlo,"0653901003",Merlo,Entidad,"0001",Gran Buenos Aires,"060539",Merlo,"-34.666970","-58.727950","-34º40' 1""","-58º43'41""",INDEC
284,"06",Buenos Aires,"06539",Merlo,"0653901004",Pontevedra,Entidad,"0001",Gran Buenos Aires,"060539",Merlo,"-34.750259","-58.701257","-34º45' 1""","-58º42' 5""",INDEC
285,"06",Buenos Aires,"06539",Merlo,"0653901005",San Antonio de Padua,Entidad,"0001",Gran Buenos Aires,"060539",Merlo,"-34.662666","-58.698126","-34º39'46""","-58º41'53""",INDEC
286,"06",Buenos Aires,"06560",Moreno,"0656001001",Cuartel V,Entidad,"0001",Gran Buenos Aires,"060560",Moreno,"-34.548824","-58.809879","-34º32'56""","-58º48'36""",INDEC
287,"06",Buenos Aires,"06560",Moreno,"0656001002",Francisco Álvarez,Entidad,"0001",Gran Buenos Aires,"060560",Moreno,"-34.633192","-58.855466","-34º37'59""","-58º51'20""",INDEC
288,"06",Buenos Aires,"06560",Moreno,"0656001003",La Reja,Entidad,"0001",Gran Buenos Aires,"060560",Moreno,"-34.639013","-58.826693","-34º38'20""","-58º49'36""",INDEC
289,"06",Buenos Aires,"06560",Moreno,"0656001004",Moreno,Entidad,"0001",Gran Buenos Aires,"060560",Moreno,"-34.646906","-58.788929","-34º38'49""","-58º47'20""",INDEC
290,"06",Buenos Aires,"06560",Moreno,"0656001005",Paso del Rey,Entidad,"0001",Gran Buenos Aires,"060560",Moreno,"-34.653133","-58.761242","-34º39'11""","-58º45'40""",INDEC
291,"06",Buenos Aires,"06560",Moreno,"0656001006",Trujui,Entidad,"0001",Gran Buenos Aires,"060560",Moreno,"-34.590737","-58.755625","-34º35'27""","-58º45'20""",INDEC
292,"06",Buenos Aires,"06568",Morón,"0656801001",Castelar,Entidad,"0001",Gran Buenos Aires,"060568",Morón,"-34.651821","-58.646048","-34º39' 7""","-58º38'46""",INDEC
293,"06",Buenos Aires,"06568",Morón,"0656801002",El Palomar,Entidad,"0001",Gran Buenos Aires,"060568",Morón,"-34.610856","-58.595681","-34º36'39""","-58º35'44""",INDEC
294,"06",Buenos Aires,"06568",Morón,"0656801003",Haedo,Entidad,"0001",Gran Buenos Aires,"060568",Morón,"-34.643608","-58.594522","-34º38'37""","-58º35'40""",INDEC
296,"06",Buenos Aires,"06568",Morón,"0656801005",Villa Sarmiento,Entidad,"0001",Gran Buenos Aires,"060568",Morón,"-34.633359","-58.570407","-34º38' 0""","-58º34'13""",INDEC
297,"06",Buenos Aires,"06581",Necochea,"0658104001",Necochea,Entidad,"0036",Necochea - Quequén,"060581",Necochea,"-38.571223","-58.726242","-38º34'16""","-58º43'34""",INDEC
298,"06",Buenos Aires,"06581",Necochea,"0658104002",Quequén,Entidad,"0036",Necochea - Quequén,"060581",Necochea,"-38.566113","-58.706181","-38º33'58""","-58º42'22""",INDEC
299,"06",Buenos Aires,"06581",Necochea,"0658104003",Costa Bonita,Entidad,"0036",Necochea - Quequén,"060581",Necochea,"-38.559974","-58.628482","-38º33'36""","-58º37'43""",INDEC
300,"06",Buenos Aires,"06595",Olavarría,"0659506001",Colonia Hinojo,Entidad,"0909",Hinojo,"060595",Olavarría,"-36.879910","-60.177496","-36º52'48""","-60º10'39""",INDEC
301,"06",Buenos Aires,"06595",Olavarría,"0659506002",Hinojo,Entidad,"0909",Hinojo,"060595",Olavarría,"-36.866543","-60.161834","-36º51'60""","-60º 9'43""",INDEC
302,"06",Buenos Aires,"06595",Olavarría,"0659511001",Sierras Bayas,Entidad,"0619",Sierras Bayas,"060595",Olavarría,"-36.932719","-60.161385","-36º55'58""","-60º 9'41""",INDEC
303,"06",Buenos Aires,"06595",Olavarría,"0659511002",Villa Arrieta,Entidad,"0619",Sierras Bayas,"060595",Olavarría,"-36.943809","-60.158351","-36º56'38""","-60º 9'30""",INDEC
304,"06",Buenos Aires,"06638",Pilar,"0663804001",Del Viso,Entidad,"0001",Gran Buenos Aires,"060638",Pilar,"-34.450216","-58.798632","-34º27' 1""","-58º47'55""",INDEC
305,"06",Buenos Aires,"06638",Pilar,"0663804002",Fátima,Entidad,"0001",Gran Buenos Aires,"060638",Pilar,"-34.427883","-58.993668","-34º25'40""","-58º59'37""",INDEC
306,"06",Buenos Aires,"06638",Pilar,"0663804003",La Lonja,Entidad,"0001",Gran Buenos Aires,"060638",Pilar,"-34.448486","-58.846096","-34º26'55""","-58º50'46""",INDEC
307,"06",Buenos Aires,"06638",Pilar,"0663804004",Los Cachorros,Entidad,"0001",Gran Buenos Aires,"060638",Pilar,"-34.423050","-58.792754","-34º25'23""","-58º47'34""",INDEC
308,"06",Buenos Aires,"06638",Pilar,"0663804005",Manzanares,Entidad,"0001",Gran Buenos Aires,"060638",Pilar,"-34.450383","-59.007042","-34º27' 1""","-59º 0'25""",INDEC
309,"06",Buenos Aires,"06638",Pilar,"0663804006",Manzone,Entidad,"0001",Gran Buenos Aires,"060638",Pilar,"-34.508618","-58.861354","-34º30'31""","-58º51'41""",INDEC
310,"06",Buenos Aires,"06638",Pilar,"0663804007",Maquinista F. Savio Oeste,Entidad,"0001",Gran Buenos Aires,"060638",Pilar,"-34.407386","-58.780177","-34º24'27""","-58º46'49""",INDEC
311,"06",Buenos Aires,"06638",Pilar,"0663804008",Pilar,Entidad,"0001",Gran Buenos Aires,"060638",Pilar,"-34.456982","-58.913912","-34º27'25""","-58º54'50""",INDEC
312,"06",Buenos Aires,"06638",Pilar,"0663804009",Presidente Derqui,Entidad,"0001",Gran Buenos Aires,"060638",Pilar,"-34.492267","-58.839020","-34º29'32""","-58º50'20""",INDEC
313,"06",Buenos Aires,"06638",Pilar,"0663804010",Roberto de Vicenzo,Entidad,"0001",Gran Buenos Aires,"060638",Pilar,"-34.432380","-58.772424","-34º25'57""","-58º46'21""",INDEC
314,"06",Buenos Aires,"06638",Pilar,"0663804011",Santa Teresa,Entidad,"0001",Gran Buenos Aires,"060638",Pilar,"-34.438514","-58.753666","-34º26'19""","-58º45'13""",INDEC
315,"06",Buenos Aires,"06638",Pilar,"0663804012",Tortuguitas,Entidad,"0001",Gran Buenos Aires,"060638",Pilar,"-34.460772","-58.763181","-34º27'39""","-58º45'47""",INDEC
316,"06",Buenos Aires,"06638",Pilar,"0663804013",Villa Astolfi,Entidad,"0001",Gran Buenos Aires,"060638",Pilar,"-34.488005","-58.875854","-34º29'17""","-58º52'33""",INDEC
317,"06",Buenos Aires,"06638",Pilar,"0663804014",Villa Rosa,Entidad,"0001",Gran Buenos Aires,"060638",Pilar,"-34.415292","-58.869549","-34º24'55""","-58º52'10""",INDEC
318,"06",Buenos Aires,"06638",Pilar,"0663804015",Zelaya,Entidad,"0001",Gran Buenos Aires,"060638",Pilar,"-34.371566","-58.869450","-34º22'18""","-58º52'10""",INDEC
319,"06",Buenos Aires,"06644",Pinamar,"0664401001",Cariló,Entidad,"0235",Pinamar,"060644",Pinamar,"-37.165220","-56.898819","-37º 9'55""","-56º53'56""",INDEC
320,"06",Buenos Aires,"06644",Pinamar,"0664401002",Ostende,Entidad,"0235",Pinamar,"060644",Pinamar,"-37.129681","-56.871202","-37º 7'47""","-56º52'16""",INDEC
321,"06",Buenos Aires,"06644",Pinamar,"0664401003",Pinamar,Entidad,"0235",Pinamar,"060644",Pinamar,"-37.113822","-56.858078","-37º 6'50""","-56º51'29""",INDEC
322,"06",Buenos Aires,"06644",Pinamar,"0664401004",Valeria del Mar,Entidad,"0235",Pinamar,"060644",Pinamar,"-37.145651","-56.881974","-37º 8'44""","-56º52'55""",INDEC
323,"06",Buenos Aires,"06648",Presidente Perón,"0664801001",Barrio América Unida,Entidad,"0001",Gran Buenos Aires,"060648",Presidente Perón,"-34.883234","-58.417778","-34º52'60""","-58º25' 4""",INDEC
324,"06",Buenos Aires,"06648",Presidente Perón,"0664801002",Guernica,Entidad,"0001",Gran Buenos Aires,"060648",Presidente Perón,"-34.917987","-58.382157","-34º55' 5""","-58º22'56""",INDEC
325,"06",Buenos Aires,"06658",Quilmes,"0665801001",Bernal,Entidad,"0001",Gran Buenos Aires,"060658",Quilmes,"-34.710902","-58.283392","-34º42'39""","-58º17' 0""",INDEC
326,"06",Buenos Aires,"06658",Quilmes,"0665801002",Bernal Oeste,Entidad,"0001",Gran Buenos Aires,"060658",Quilmes,"-34.726297","-58.317914","-34º43'35""","-58º19' 4""",INDEC
327,"06",Buenos Aires,"06658",Quilmes,"0665801003",Don Bosco,Entidad,"0001",Gran Buenos Aires,"060658",Quilmes,"-34.704465","-58.297585","-34º42'16""","-58º17'51""",INDEC
328,"06",Buenos Aires,"06658",Quilmes,"0665801004",Ezpeleta,Entidad,"0001",Gran Buenos Aires,"060658",Quilmes,"-34.745943","-58.234795","-34º44'45""","-58º14' 5""",INDEC
329,"06",Buenos Aires,"06658",Quilmes,"0665801005",Ezpeleta Oeste,Entidad,"0001",Gran Buenos Aires,"060658",Quilmes,"-34.757213","-58.263957","-34º45'26""","-58º15'50""",INDEC
330,"06",Buenos Aires,"06658",Quilmes,"0665801006",Quilmes,Entidad,"0001",Gran Buenos Aires,"060658",Quilmes,"-34.720068","-58.254347","-34º43'12""","-58º15'16""",INDEC
331,"06",Buenos Aires,"06658",Quilmes,"0665801007",Quilmes Oeste,Entidad,"0001",Gran Buenos Aires,"060658",Quilmes,"-34.746054","-58.299125","-34º44'46""","-58º17'57""",INDEC
332,"06",Buenos Aires,"06658",Quilmes,"0665801008",San Francisco Solano,Entidad,"0001",Gran Buenos Aires,"060658",Quilmes,"-34.779761","-58.311161","-34º46'47""","-58º18'40""",INDEC
333,"06",Buenos Aires,"06658",Quilmes,"0665801009",Villa La Florida,Entidad,"0001",Gran Buenos Aires,"060658",Quilmes,"-34.772270","-58.292931","-34º46'20""","-58º17'35""",INDEC
334,"06",Buenos Aires,"06686",Rojas,"0668606001",Barrio Las Margaritas,Entidad,"0151",Rojas,"060686",Rojas,"-34.184726","-60.698988","-34º11' 5""","-60º41'56""",INDEC
335,"06",Buenos Aires,"06686",Rojas,"0668606002",Rojas,Entidad,"0151",Rojas,"060686",Rojas,"-34.200206","-60.729479","-34º12' 1""","-60º43'46""",INDEC
336,"06",Buenos Aires,"06686",Rojas,"0668606003",Villa Parque Cecir,Entidad,"0151",Rojas,"060686",Rojas,"-34.174947","-60.694430","-34º10'30""","-60º41'40""",INDEC
337,"06",Buenos Aires,"06749",San Fernando,"0674901001",San Fernando,Entidad,"0001",Gran Buenos Aires,"060749",San Fernando,"-34.443659","-58.558646","-34º26'37""","-58º33'31""",INDEC
338,"06",Buenos Aires,"06749",San Fernando,"0674901002",Victoria,Entidad,"0001",Gran Buenos Aires,"060749",San Fernando,"-34.453048","-58.542191","-34º27'11""","-58º32'32""",INDEC
339,"06",Buenos Aires,"06749",San Fernando,"0674901003",Virreyes,Entidad,"0001",Gran Buenos Aires,"060749",San Fernando,"-34.453752","-58.554340","-34º27'14""","-58º33'16""",INDEC
340,"06",Buenos Aires,"06756",San Isidro,"0675601001",Acasusso,Entidad,"0001",Gran Buenos Aires,"060756",San Isidro,"-34.478229","-58.502680","-34º28'42""","-58º30'10""",INDEC
341,"06",Buenos Aires,"06756",San Isidro,"0675601002",Béccar,Entidad,"0001",Gran Buenos Aires,"060756",San Isidro,"-34.460196","-58.531361","-34º27'37""","-58º31'53""",INDEC
342,"06",Buenos Aires,"06756",San Isidro,"0675601003",Boulogne Sur Mer,Entidad,"0001",Gran Buenos Aires,"060756",San Isidro,"-34.509480","-58.566911","-34º30'34""","-58º34' 1""",INDEC
343,"06",Buenos Aires,"06756",San Isidro,"0675601004",Martínez,Entidad,"0001",Gran Buenos Aires,"060756",San Isidro,"-34.489010","-58.499380","-34º29'20""","-58º29'58""",INDEC
344,"06",Buenos Aires,"06756",San Isidro,"0675601005",San Isidro,Entidad,"0001",Gran Buenos Aires,"060756",San Isidro,"-34.469883","-58.511294","-34º28'12""","-58º30'41""",INDEC
345,"06",Buenos Aires,"06756",San Isidro,"0675601006",Villa Adelina,Entidad,"0001",Gran Buenos Aires,"060756",San Isidro,"-34.518856","-58.547356","-34º31' 8""","-58º32'50""",INDEC
346,"06",Buenos Aires,"06760",San Miguel,"0676001001",Bella Vista,Entidad,"0001",Gran Buenos Aires,"060760",San Miguel,"-34.568273","-58.682058","-34º34' 6""","-58º40'55""",INDEC
347,"06",Buenos Aires,"06760",San Miguel,"0676001002",Campo de Mayo,Entidad,"0001",Gran Buenos Aires,"060760",San Miguel,"-34.555063","-58.652214","-34º33'18""","-58º39' 8""",INDEC
348,"06",Buenos Aires,"06760",San Miguel,"0676001003",Muñiz,Entidad,"0001",Gran Buenos Aires,"060760",San Miguel,"-34.552495","-58.704794","-34º33' 9""","-58º42'17""",INDEC
349,"06",Buenos Aires,"06760",San Miguel,"0676001004",San Miguel,Entidad,"0001",Gran Buenos Aires,"060760",San Miguel,"-34.543134","-58.709201","-34º32'35""","-58º42'33""",INDEC
350,"06",Buenos Aires,"06763",San Nicolás,"0676304001",La Emilia,Entidad,"0383",La Emilia,"060763",San Nicolás,"-33.349041","-60.315676","-33º20'57""","-60º18'56""",INDEC
351,"06",Buenos Aires,"06763",San Nicolás,"0676304002",Villa Campi,Entidad,"0383",La Emilia,"060763",San Nicolás,"-33.360725","-60.300047","-33º21'39""","-60º18' 0""",INDEC
352,"06",Buenos Aires,"06763",San Nicolás,"0676304003",Villa Canto,Entidad,"0383",La Emilia,"060763",San Nicolás,"-33.369793","-60.295273","-33º22'11""","-60º17'43""",INDEC
353,"06",Buenos Aires,"06763",San Nicolás,"0676304004",Villa Riccio,Entidad,"0383",La Emilia,"060763",San Nicolás,"-33.364357","-60.294708","-33º21'52""","-60º17'41""",INDEC
354,"06",Buenos Aires,"06763",San Nicolás,"0676305001",Campos Salles,Entidad,"0024",Gran San Nicolás de los Arroyos,"060763",San Nicolás,"-33.401672","-60.237468","-33º24' 6""","-60º14'15""",INDEC
355,"06",Buenos Aires,"06763",San Nicolás,"0676305002",San Nicolás de los Arroyos,Entidad,"0024",Gran San Nicolás de los Arroyos,"060763",San Nicolás,"-33.338404","-60.221496","-33º20'18""","-60º13'17""",INDEC
356,"06",Buenos Aires,"06778",San Vicente,"0677802001",Alejandro Korn,Entidad,"0001",Gran Buenos Aires,"060778",San Vicente,"-34.981412","-58.376726","-34º58'53""","-58º22'36""",INDEC
357,"06",Buenos Aires,"06778",San Vicente,"0677802002",San Vicente,Entidad,"0001",Gran Buenos Aires,"060778",San Vicente,"-35.025902","-58.422404","-35º 1'33""","-58º25'21""",INDEC
358,"06",Buenos Aires,"06778",San Vicente,"0677802003",Domselaar,Entidad,"0001",Gran Buenos Aires,"060778",San Vicente,"-35.073894","-58.290458","-35º 4'26""","-58º17'26""",INDEC
359,"06",Buenos Aires,"06805",Tigre,"0680501001",Benavídez,Entidad,"0001",Gran Buenos Aires,"060805",Tigre,"-34.411573","-58.689928","-34º24'42""","-58º41'24""",INDEC
360,"06",Buenos Aires,"06805",Tigre,"0680501002",Dique Luján,Entidad,"0001",Gran Buenos Aires,"060805",Tigre,"-34.361305","-58.686561","-34º21'41""","-58º41'12""",INDEC
361,"06",Buenos Aires,"06805",Tigre,"0680501003",Don  Torcuato Este,Entidad,"0001",Gran Buenos Aires,"060805",Tigre,"-34.487529","-58.615576","-34º29'15""","-58º36'56""",INDEC
362,"06",Buenos Aires,"06805",Tigre,"0680501004",Don Torcuato Oeste,Entidad,"0001",Gran Buenos Aires,"060805",Tigre,"-34.501312","-58.626698","-34º30' 5""","-58º37'36""",INDEC
363,"06",Buenos Aires,"06805",Tigre,"0680501005",El Talar,Entidad,"0001",Gran Buenos Aires,"060805",Tigre,"-34.463581","-58.661352","-34º27'49""","-58º39'41""",INDEC
364,"06",Buenos Aires,"06805",Tigre,"0680501006",General Pacheco,Entidad,"0001",Gran Buenos Aires,"060805",Tigre,"-34.454923","-58.634149","-34º27'18""","-58º38' 3""",INDEC
365,"06",Buenos Aires,"06805",Tigre,"0680501007",Troncos del Talar,Entidad,"0001",Gran Buenos Aires,"060805",Tigre,"-34.454810","-58.613341","-34º27'17""","-58º36'48""",INDEC
366,"06",Buenos Aires,"06805",Tigre,"0680501008",Ricardo Rojas,Entidad,"0001",Gran Buenos Aires,"060805",Tigre,"-34.458453","-58.683043","-34º27'30""","-58º40'59""",INDEC
367,"06",Buenos Aires,"06805",Tigre,"0680501009",Rincón de Milberg,Entidad,"0001",Gran Buenos Aires,"060805",Tigre,"-34.410460","-58.601996","-34º24'38""","-58º36' 7""",INDEC
368,"06",Buenos Aires,"06805",Tigre,"0680501010",Tigre,Entidad,"0001",Gran Buenos Aires,"060805",Tigre,"-34.424813","-58.575528","-34º25'29""","-58º34'32""",INDEC
369,"06",Buenos Aires,"06833",Tres Arroyos,"0683302001",Claromecó,Entidad,"1159",Claromecó,"060833",Tres Arroyos,"-38.853959","-60.072834","-38º51'14""","-60º 4'22""",INDEC
370,"06",Buenos Aires,"06833",Tres Arroyos,"0683302002",Dunamar,Entidad,"1159",Claromecó,"060833",Tres Arroyos,"-38.858557","-60.086187","-38º51'31""","-60º 5'10""",INDEC
371,"06",Buenos Aires,"06840",Tres de Febrero,"0684001001",Caseros,Entidad,"0001",Gran Buenos Aires,"060840",Tres de Febrero,"-34.607936","-58.563939","-34º36'29""","-58º33'50""",INDEC
372,"06",Buenos Aires,"06840",Tres de Febrero,"0684001002",Churruca,Entidad,"0001",Gran Buenos Aires,"060840",Tres de Febrero,"-34.559089","-58.621086","-34º33'33""","-58º37'16""",INDEC
373,"06",Buenos Aires,"06840",Tres de Febrero,"0684001003",Ciudad Jardín Lomas del Palomar,Entidad,"0001",Gran Buenos Aires,"060840",Tres de Febrero,"-34.602057","-58.591813","-34º36' 7""","-58º35'31""",INDEC
374,"06",Buenos Aires,"06840",Tres de Febrero,"0684001004",Ciudadela,Entidad,"0001",Gran Buenos Aires,"060840",Tres de Febrero,"-34.637915","-58.539343","-34º38'16""","-58º32'22""",INDEC
375,"06",Buenos Aires,"06840",Tres de Febrero,"0684001005",El Libertador,Entidad,"0001",Gran Buenos Aires,"060840",Tres de Febrero,"-34.555427","-58.612811","-34º33'20""","-58º36'46""",INDEC
376,"06",Buenos Aires,"06840",Tres de Febrero,"0684001006",José Ingenieros,Entidad,"0001",Gran Buenos Aires,"060840",Tres de Febrero,"-34.617168","-58.535948","-34º37' 2""","-58º32' 9""",INDEC
377,"06",Buenos Aires,"06840",Tres de Febrero,"0684001007",Loma Hermosa,Entidad,"0001",Gran Buenos Aires,"060840",Tres de Febrero,"-34.568675","-58.602142","-34º34' 7""","-58º36' 8""",INDEC
378,"06",Buenos Aires,"06840",Tres de Febrero,"0684001008",Martín Coronado,Entidad,"0001",Gran Buenos Aires,"060840",Tres de Febrero,"-34.583768","-58.596704","-34º35' 2""","-58º35'48""",INDEC
379,"06",Buenos Aires,"06840",Tres de Febrero,"0684001009",11 de Septiembre,Entidad,"0001",Gran Buenos Aires,"060840",Tres de Febrero,"-34.565994","-58.618596","-34º33'58""","-58º37' 7""",INDEC
380,"06",Buenos Aires,"06840",Tres de Febrero,"0684001010",Pablo Podestá,Entidad,"0001",Gran Buenos Aires,"060840",Tres de Febrero,"-34.584949","-58.611638","-34º35' 6""","-58º36'42""",INDEC
381,"06",Buenos Aires,"06840",Tres de Febrero,"0684001011",Remedios de Escalada,Entidad,"0001",Gran Buenos Aires,"060840",Tres de Febrero,"-34.570973","-58.619803","-34º34'16""","-58º37'11""",INDEC
382,"06",Buenos Aires,"06840",Tres de Febrero,"0684001012",Sáenz Peña,Entidad,"0001",Gran Buenos Aires,"060840",Tres de Febrero,"-34.600149","-58.527633","-34º36' 1""","-58º31'39""",INDEC
383,"06",Buenos Aires,"06840",Tres de Febrero,"0684001013",Santos Lugares,Entidad,"0001",Gran Buenos Aires,"060840",Tres de Febrero,"-34.603007","-58.540825","-34º36'11""","-58º32'27""",INDEC
384,"06",Buenos Aires,"06840",Tres de Febrero,"0684001014",Villa Bosch,Entidad,"0001",Gran Buenos Aires,"060840",Tres de Febrero,"-34.586816","-58.573806","-34º35'13""","-58º34'26""",INDEC
385,"06",Buenos Aires,"06840",Tres de Febrero,"0684001015",Villa Raffo,Entidad,"0001",Gran Buenos Aires,"060840",Tres de Febrero,"-34.608400","-58.530915","-34º36'30""","-58º31'51""",INDEC
386,"06",Buenos Aires,"06861",Vicente López,"0686101001",Carapachay,Entidad,"0001",Gran Buenos Aires,"060861",Vicente López,"-34.528205","-58.534613","-34º31'42""","-58º32' 5""",INDEC
387,"06",Buenos Aires,"06861",Vicente López,"0686101002",Florida,Entidad,"0001",Gran Buenos Aires,"060861",Vicente López,"-34.532011","-58.492825","-34º31'55""","-58º29'34""",INDEC
388,"06",Buenos Aires,"06861",Vicente López,"0686101003",Florida Oeste,Entidad,"0001",Gran Buenos Aires,"060861",Vicente López,"-34.538507","-58.515459","-34º32'19""","-58º30'56""",INDEC
389,"06",Buenos Aires,"06861",Vicente López,"0686101004",La Lucila,Entidad,"0001",Gran Buenos Aires,"060861",Vicente López,"-34.498695","-58.488602","-34º29'55""","-58º29'19""",INDEC
390,"06",Buenos Aires,"06861",Vicente López,"0686101005",Munro,Entidad,"0001",Gran Buenos Aires,"060861",Vicente López,"-34.529805","-58.525183","-34º31'47""","-58º31'31""",INDEC
391,"06",Buenos Aires,"06861",Vicente López,"0686101006",Olivos,Entidad,"0001",Gran Buenos Aires,"060861",Vicente López,"-34.509320","-58.481396","-34º30'34""","-58º28'53""",INDEC
392,"06",Buenos Aires,"06861",Vicente López,"0686101007",Vicente López,Entidad,"0001",Gran Buenos Aires,"060861",Vicente López,"-34.525740","-58.474150","-34º31'33""","-58º28'27""",INDEC
393,"06",Buenos Aires,"06861",Vicente López,"0686101008",Villa Adelina,Entidad,"0001",Gran Buenos Aires,"060861",Vicente López,"-34.526505","-58.545468","-34º31'35""","-58º32'44""",INDEC
394,"06",Buenos Aires,"06861",Vicente López,"0686101009",Villa Martelli,Entidad,"0001",Gran Buenos Aires,"060861",Vicente López,"-34.551304","-58.506627","-34º33' 5""","-58º30'24""",INDEC
395,"06",Buenos Aires,"06868",Villa Gesell,"0686801001",Mar Azul,Entidad,"2155",Mar Azul,"060868",Villa Gesell,"-37.336812","-57.029536","-37º20'13""","-57º 1'46""",INDEC
396,"06",Buenos Aires,"06868",Villa Gesell,"0686801002",Mar de las Pampas,Entidad,"2155",Mar Azul,"060868",Villa Gesell,"-37.326564","-57.022536","-37º19'36""","-57º 1'21""",INDEC
397,"06",Buenos Aires,"06882",Zárate,"0688205001",Barrio Saavedra,Entidad,"0033",Zárate,"060882",Zárate,"-34.138027","-59.005403","-34º 8'17""","-59º 0'19""",INDEC
398,"06",Buenos Aires,"06882",Zárate,"0688205002",Zárate,Entidad,"0033",Zárate,"060882",Zárate,"-34.098917","-59.029663","-34º 5'56""","-59º 1'47""",INDEC
399,"10",Catamarca,"10021",Andalgalá,"1002105001",Buena Vista,Entidad,"2205",El Alamito,"100042",Aconquija,"-27.505720","-66.022881","-27º30'21""","-66º 1'22""",INDEC
400,"10",Catamarca,"10021",Andalgalá,"1002105002",El Alamito,Entidad,"2205",El Alamito,"100042",Aconquija,"-27.494568","-66.022449","-27º29'40""","-66º 1'21""",INDEC
401,"10",Catamarca,"10021",Andalgalá,"1002106001",Aconquija,Entidad,"1405",El Lindero,"100042",Aconquija,"-27.468098","-66.010317","-27º28' 5""","-66º 0'37""",INDEC
402,"10",Catamarca,"10021",Andalgalá,"1002106002",Alto de las Juntas,Entidad,"1405",El Lindero,"100042",Aconquija,"-27.427933","-65.995097","-27º25'41""","-65º59'42""",INDEC
403,"10",Catamarca,"10021",Andalgalá,"1002106003",El Lindero,Entidad,"1405",El Lindero,"100042",Aconquija,"-27.453106","-66.004503","-27º27'11""","-66º 0'16""",INDEC
404,"10",Catamarca,"10021",Andalgalá,"1002106004",La Mesada,Entidad,"1405",El Lindero,"100042",Aconquija,"-27.444155","-66.002213","-27º26'39""","-66º 0' 8""",INDEC
405,"10",Catamarca,"10042",Capayán,"1004211001",Los Ángeles Norte,Entidad,"2208",Los Ángeles,"100133",Huillapima,"-28.459144","-65.948823","-28º27'33""","-65º56'56""",INDEC
406,"10",Catamarca,"10042",Capayán,"1004211002",Los Ángeles Sur,Entidad,"2208",Los Ángeles,"100133",Huillapima,"-28.482984","-65.950615","-28º28'59""","-65º57' 2""",INDEC
407,"10",Catamarca,"10063",Fray Mamerto Esquiú,"1006304001",El Hueco,Entidad,"0021",Gran San Fernando del Valle de Catamarca,"100161",Fray Mamerto Esquiú,"-28.422071","-65.711764","-28º25'19""","-65º42'42""",INDEC
408,"10",Catamarca,"10063",Fray Mamerto Esquiú,"1006304002",La Carrera,Entidad,"0021",Gran San Fernando del Valle de Catamarca,"100161",Fray Mamerto Esquiú,"-28.356843","-65.707311","-28º21'25""","-65º42'26""",INDEC
409,"10",Catamarca,"10063",Fray Mamerto Esquiú,"1006304003",La Falda de San Antonio,Entidad,"0021",Gran San Fernando del Valle de Catamarca,"100161",Fray Mamerto Esquiú,"-28.424993","-65.696735","-28º25'30""","-65º41'48""",INDEC
410,"10",Catamarca,"10063",Fray Mamerto Esquiú,"1006304004",La Tercena,Entidad,"0021",Gran San Fernando del Valle de Catamarca,"100161",Fray Mamerto Esquiú,"-28.372188","-65.704880","-28º22'20""","-65º42'18""",INDEC
411,"10",Catamarca,"10063",Fray Mamerto Esquiú,"1006304005",San Antonio,Entidad,"0021",Gran San Fernando del Valle de Catamarca,"100161",Fray Mamerto Esquiú,"-28.425757","-65.708381","-28º25'33""","-65º42'30""",INDEC
412,"10",Catamarca,"10063",Fray Mamerto Esquiú,"1006304006",San José,Entidad,"0021",Gran San Fernando del Valle de Catamarca,"100161",Fray Mamerto Esquiú,"-28.390406","-65.701712","-28º23'25""","-65º42' 6""",INDEC
413,"10",Catamarca,"10091",Santa María,"1009103001",Chañar Punco,Entidad,"0989",Chañar Punco,"100210",Santa María,"-26.724560","-66.076098","-26º43'28""","-66º 4'34""",INDEC
414,"10",Catamarca,"10091",Santa María,"1009103002",Lampacito,Entidad,"0989",Chañar Punco,"100210",Santa María,"-26.714552","-66.068288","-26º42'52""","-66º 4' 6""",INDEC
415,"10",Catamarca,"10091",Santa María,"1009103003",Medanitos,Entidad,"0989",Chañar Punco,"100210",Santa María,"-26.750778","-66.078723","-26º45' 3""","-66º 4'43""",INDEC
416,"10",Catamarca,"10091",Santa María,"1009107001",Famatanca,Entidad,"1380",Famatanca,"100203",San José,"-26.770956","-66.082273","-26º46'15""","-66º 4'56""",INDEC
417,"10",Catamarca,"10091",Santa María,"1009107002",San José Banda,Entidad,"1380",Famatanca,"100203",San José,"-26.797435","-66.085185","-26º47'51""","-66º 5' 7""",INDEC
418,"10",Catamarca,"10091",Santa María,"1009111001",El Cerrito,Entidad,"1470",Las Mojarras,"100210",Santa María,"-26.671915","-66.060792","-26º40'19""","-66º 3'39""",INDEC
419,"10",Catamarca,"10091",Santa María,"1009111002",Las Mojarras,Entidad,"1470",Las Mojarras,"100210",Santa María,"-26.693757","-66.066214","-26º41'38""","-66º 3'58""",INDEC
420,"10",Catamarca,"10091",Santa María,"1009114001",Casa de Piedra,Entidad,"0780",San José,"100203",San José,"-26.816619","-66.079496","-26º48'60""","-66º 4'46""",INDEC
421,"10",Catamarca,"10091",Santa María,"1009114002",La Puntilla,Entidad,"0780",San José,"100203",San José,"-26.824889","-66.085081","-26º49'30""","-66º 5' 6""",INDEC
422,"10",Catamarca,"10091",Santa María,"1009114003",Palo Seco,Entidad,"0780",San José,"100203",San José,"-26.809275","-66.074615","-26º48'33""","-66º 4'29""",INDEC
423,"10",Catamarca,"10091",Santa María,"1009114004",San José Norte,Entidad,"0780",San José,"100203",San José,"-26.788516","-66.065927","-26º47'19""","-66º 3'57""",INDEC
424,"10",Catamarca,"10091",Santa María,"1009114005",San José Villa,Entidad,"0780",San José,"100203",San José,"-26.801329","-66.068333","-26º48' 5""","-66º 4' 6""",INDEC
425,"10",Catamarca,"10105",Tinogasta,"1010505001",Copacabana,Entidad,"1397",Copacabana,"100231",Tinogasta,"-28.175414","-67.488040","-28º10'31""","-67º29'17""",INDEC
426,"10",Catamarca,"10105",Tinogasta,"1010505002",La Puntilla,Entidad,"1397",Copacabana,"100231",Tinogasta,"-28.129331","-67.499756","-28º 7'46""","-67º29'59""",INDEC
427,"10",Catamarca,"10105",Tinogasta,"1010511001",Fiambalá,Entidad,"0528",Fiambalá,"100224",Fiambalá,"-27.689455","-67.619148","-27º41'22""","-67º37' 9""",INDEC
428,"10",Catamarca,"10105",Tinogasta,"1010511002",La Ramadita,Entidad,"0528",Fiambalá,"100224",Fiambalá,"-27.684460","-67.619439","-27º41' 4""","-67º37'10""",INDEC
429,"10",Catamarca,"10105",Tinogasta,"1010511003",Pampa Blanca,Entidad,"0528",Fiambalá,"100224",Fiambalá,"-27.652527","-67.614765","-27º39' 9""","-67º36'53""",INDEC
430,"10",Catamarca,"10112",Valle Viejo,"1011204001",El Bañado,Entidad,"0021",Gran San Fernando del Valle de Catamarca,"100238",Valle Viejo,"-28.460111","-65.712015","-28º27'36""","-65º42'43""",INDEC
431,"10",Catamarca,"10112",Valle Viejo,"1011204002",Polcos,Entidad,"0021",Gran San Fernando del Valle de Catamarca,"100238",Valle Viejo,"-28.437240","-65.720769","-28º26'14""","-65º43'15""",INDEC
432,"10",Catamarca,"10112",Valle Viejo,"1011204003",Pozo del Mistol,Entidad,"0021",Gran San Fernando del Valle de Catamarca,"100238",Valle Viejo,"-28.472116","-65.722759","-28º28'20""","-65º43'22""",INDEC
433,"10",Catamarca,"10112",Valle Viejo,"1011204004",San Isidro,Entidad,"0021",Gran San Fernando del Valle de Catamarca,"100238",Valle Viejo,"-28.459666","-65.725893","-28º27'35""","-65º43'33""",INDEC
434,"10",Catamarca,"10112",Valle Viejo,"1011204005",Santa Rosa,Entidad,"0021",Gran San Fernando del Valle de Catamarca,"100238",Valle Viejo,"-28.442561","-65.710838","-28º26'33""","-65º42'39""",INDEC
435,"10",Catamarca,"10112",Valle Viejo,"1011204006",Sumalao,Entidad,"0021",Gran San Fernando del Valle de Catamarca,"100238",Valle Viejo,"-28.474965","-65.737590","-28º28'30""","-65º44'15""",INDEC
436,"10",Catamarca,"10112",Valle Viejo,"1011204007",Villa Dolores,Entidad,"0021",Gran San Fernando del Valle de Catamarca,"100238",Valle Viejo,"-28.461166","-65.732819","-28º27'40""","-65º43'58""",INDEC
437,"14",Córdoba,"14007",Calamuchita,"1400712001",Los Molinos,Entidad,"2399",Los Molinos,"142042",Los Molinos,"-31.856360","-64.379558","-31º51'23""","-64º22'46""",INDEC
438,"14",Córdoba,"14007",Calamuchita,"1400712002",Villa San Miguel,Entidad,"2399",Los Molinos,"142042",Los Molinos,"-31.863428","-64.374997","-31º51'48""","-64º22'30""",INDEC
439,"14",Córdoba,"14007",Calamuchita,"1400721001",Santa  Mónica,Entidad,"0294",Santa Rosa de Calamuchita,"140035",Santa Rosa de Calamuchita,"-32.068826","-64.574312","-32º 4' 8""","-64º34'28""",INDEC
440,"14",Córdoba,"14007",Calamuchita,"1400721002",Santa Rosa de Calamuchita,Entidad,"0294",Santa Rosa de Calamuchita,"140035",Santa Rosa de Calamuchita,"-32.069910","-64.539092","-32º 4'12""","-64º32'21""",INDEC
441,"14",Córdoba,"14007",Calamuchita,"1400721003",San Ignacio (Loteo Vélez Crespo),Entidad,"0294",Santa Rosa de Calamuchita,"140035",Santa Rosa de Calamuchita,"-32.098951","-64.537142","-32º 5'56""","-64º32'14""",INDEC
442,"14",Córdoba,"14007",Calamuchita,"1400727001",Villa Ciudad Parque Los Reartes,Entidad,"2403",Los Reartes - Villa Ciudad Parque Los Reartes,"142084",Villa Ciudad Parque Los Reartes,"-31.910371","-64.537746","-31º54'37""","-64º32'16""",INDEC
443,"14",Córdoba,"14007",Calamuchita,"1400727002",Va.Ciudad Pque.Los Reartes (1° Sección),Entidad,"2403",Los Reartes - Villa Ciudad Parque Los Reartes,"142084",Villa Ciudad Parque Los Reartes,"-31.914248","-64.525912","-31º54'51""","-64º31'33""",INDEC
444,"14",Córdoba,"14007",Calamuchita,"1400727003",Va.Ciudad Pque.Los Reartes (3° Sección),Entidad,"2403",Los Reartes - Villa Ciudad Parque Los Reartes,"142084",Villa Ciudad Parque Los Reartes,"-31.904934","-64.561367","-31º54'18""","-64º33'41""",INDEC
445,"14",Córdoba,"14014",Capital,"1401401001",Jardín Arenales,Entidad,"0002",Gran Córdoba,"140077",Córdoba,"-31.368585","-64.060522","-31º22' 7""","-64º 3'38""",INDEC
447,"14",Córdoba,"14014",Capital,"1401401003",Córdoba,Entidad,"0002",Gran Córdoba,"140077",Córdoba,"-31.415046","-64.179114","-31º24'54""","-64º10'45""",INDEC
448,"14",Córdoba,"14021",Colón,"1402115001",Dumesnil,Entidad,"0002",Gran Córdoba,"140119",La Calera,"-31.336528","-64.337166","-31º20'12""","-64º20'14""",INDEC
449,"14",Córdoba,"14021",Colón,"1402115002",La Calera,Entidad,"0002",Gran Córdoba,"140119",La Calera,"-31.350356","-64.337943","-31º21' 1""","-64º20'17""",INDEC
450,"14",Córdoba,"14021",Colón,"1402115003",El Diquecito,Entidad,"0002",Gran Córdoba,"140119",La Calera,"-31.351084","-64.365321","-31º21' 4""","-64º21'55""",INDEC
451,"14",Córdoba,"14021",Colón,"1402125001",El Pueblito,Entidad,"0002",Gran Córdoba,"140161",Salsipuedes,"-31.106200","-64.292290","-31º 6'22""","-64º17'32""",INDEC
452,"14",Córdoba,"14021",Colón,"1402125002",Salsipuedes,Entidad,"0002",Gran Córdoba,"140161",Salsipuedes,"-31.137881","-64.292772","-31º 8'16""","-64º17'34""",INDEC
453,"14",Córdoba,"14021",Colón,"1402131001",Guiñazú Norte,Entidad,"0002",Gran Córdoba,"140105",Estación Juárez Celman,"-31.307734","-64.175442","-31º18'28""","-64º10'32""",INDEC
454,"14",Córdoba,"14021",Colón,"1402131002",Parque Norte,Entidad,"0002",Gran Córdoba,"140105",Estación Juárez Celman,"-31.300499","-64.176962","-31º18' 2""","-64º10'37""",INDEC
455,"14",Córdoba,"14021",Colón,"1402131004",1° de Agosto,Entidad,"0002",Gran Córdoba,"140105",Estación Juárez Celman,"-31.307806","-64.178144","-31º18'28""","-64º10'41""",INDEC
456,"14",Córdoba,"14021",Colón,"1402131005",Allmirante Brown,Entidad,"0002",Gran Córdoba,"140105",Estación Juárez Celman,"-31.307490","-64.182728","-31º18'27""","-64º10'58""",INDEC
457,"14",Córdoba,"14021",Colón,"1402131006",Ciudad de los Niños,Entidad,"0002",Gran Córdoba,"140105",Estación Juárez Celman,"-31.295750","-64.177329","-31º17'45""","-64º10'38""",INDEC
458,"14",Córdoba,"14021",Colón,"1402131007",Villa Pastora,Entidad,"0002",Gran Córdoba,"140105",Estación Juárez Celman,"-31.305816","-64.179187","-31º18'21""","-64º10'45""",INDEC
459,"14",Córdoba,"14021",Colón,"1402132001",Juárez Celman,Entidad,"1241",Villa Los Llanos - Juárez Celman,"140105",Estación Juárez Celman,"-31.258042","-64.166243","-31º15'29""","-64º 9'58""",INDEC
460,"14",Córdoba,"14021",Colón,"1402132002",Villa Los Llanos,Entidad,"1241",Villa Los Llanos - Juárez Celman,"140105",Estación Juárez Celman,"-31.276465","-64.160905","-31º16'35""","-64º 9'39""",INDEC
461,"14",Córdoba,"14091",Punilla,"1409102001",Bialet Massé,Entidad,"0099",Cosquín - Santa María de Punilla - Bialet Massé,"140665",Bialet Massé,"-31.314349","-64.461532","-31º18'52""","-64º27'42""",INDEC
462,"14",Córdoba,"14091",Punilla,"1409102002",San Roque del Lago,Entidad,"0099",Cosquín - Santa María de Punilla - Bialet Massé,"140665",Bialet Massé,"-31.323907","-64.451973","-31º19'26""","-64º27' 7""",INDEC
463,"14",Córdoba,"14133",San Javier,"1413319001",Alto Resbaloso - El Barrial,Entidad,"0079",Villa Dolores - Villa Sarmiento - San Pedro - Villa de las Rosas,"141148",Villa de las Rosas,"-31.960293","-65.065810","-31º57'37""","-65º 3'57""",INDEC
464,"14",Córdoba,"14133",San Javier,"1413319002",El Pueblito,Entidad,"0079",Villa Dolores - Villa Sarmiento - San Pedro - Villa de las Rosas,"141148",Villa de las Rosas,"-31.957810","-65.074438","-31º57'28""","-65º 4'28""",INDEC
465,"14",Córdoba,"14133",San Javier,"1413319003",El Valle,Entidad,"0079",Villa Dolores - Villa Sarmiento - San Pedro - Villa de las Rosas,"141148",Villa de las Rosas,"-31.945168","-65.064491","-31º56'43""","-65º 3'52""",INDEC
466,"14",Córdoba,"14133",San Javier,"1413319004",Las Chacras,Entidad,"0079",Villa Dolores - Villa Sarmiento - San Pedro - Villa de las Rosas,"141148",Villa de las Rosas,"-31.941965","-65.025125","-31º56'31""","-65º 1'30""",INDEC
467,"14",Córdoba,"14133",San Javier,"1413319005",Villa de las Rosas,Entidad,"0079",Villa Dolores - Villa Sarmiento - San Pedro - Villa de las Rosas,"141148",Villa de las Rosas,"-31.950362","-65.053994","-31º57' 1""","-65º 3'14""",INDEC
468,"14",Córdoba,"14147",Santa María,"1414703001",Barrio Gilbert,Entidad,"2355",Barrio Gilbert - Tejas Tres,"141393",Malagueño,"-31.441672","-64.318002","-31º26'30""","-64º19' 5""",INDEC
469,"14",Córdoba,"14147",Santa María,"1414703002",Tejas Tres,Entidad,"2355",Barrio Gilbert - Tejas Tres,"141393",Malagueño,"-31.440220","-64.314610","-31º26'25""","-64º18'53""",INDEC
471,"14",Córdoba,"14147",Santa María,"1414719002",Los Cedros,Entidad,"2332",Los Cedros,"143043",Los Cedros,"-31.526485","-64.281421","-31º31'35""","-64º16'53""",INDEC
472,"14",Córdoba,"14147",Santa María,"1414726001",San Nicolás,Entidad,"1539",San Nicolás - Tierra Alta,"141393",Malagueño,"-31.436277","-64.452867","-31º26'11""","-64º27'10""",INDEC
473,"14",Córdoba,"14147",Santa María,"1414726002",Tierra Alta,Entidad,"1539",San Nicolás - Tierra Alta,"141393",Malagueño,"-31.424134","-64.465506","-31º25'27""","-64º27'56""",INDEC
474,"14",Córdoba,"14147",Santa María,"1414731001",Barrio Villa del Parque,Entidad,"2407",Potrero de Garay - Villa Ciudad de América,"143078",Villa Ciudad de América,"-31.798132","-64.516386","-31º47'53""","-64º30'59""",INDEC
475,"14",Córdoba,"14147",Santa María,"1414731002",Villa Ciudad de América,Entidad,"2407",Potrero de Garay - Villa Ciudad de América,"143078",Villa Ciudad de América,"-31.783244","-64.530521","-31º46'60""","-64º31'50""",INDEC
476,"14",Córdoba,"14147",Santa María,"1414732001",Villa del Prado,Entidad,"1490",Villa del Prado,"143085",Villa del Prado,"-31.618432","-64.391276","-31º37' 6""","-64º23'29""",INDEC
477,"14",Córdoba,"14147",Santa María,"1414732002",La Donosa,Entidad,"1490",Villa del Prado,"143085",Villa del Prado,"-31.621317","-64.382052","-31º37'17""","-64º22'55""",INDEC
478,"14",Córdoba,"14147",Santa María,"1414735001",Mi Valle,Entidad,"1087",Villa Parque Santa Ana,"143106",Villa Parque Santa Ana,"-31.584490","-64.356257","-31º35' 4""","-64º21'23""",INDEC
479,"14",Córdoba,"14147",Santa María,"1414735002",Villa Parque Santa Ana,Entidad,"1087",Villa Parque Santa Ana,"143106",Villa Parque Santa Ana,"-31.592159","-64.352436","-31º35'32""","-64º21' 9""",INDEC
480,"26",Chubut,"26021",Escalante,"2602103001",Acceso Norte,Entidad,"0022",Comodoro Rivadavia,"260049",Comodoro Rivadavia,"-45.783793","-67.496074","-45º47' 2""","-67º29'46""",INDEC
481,"26",Chubut,"26021",Escalante,"2602103002",Barrio Caleta Córdova,Entidad,"0022",Comodoro Rivadavia,"260049",Comodoro Rivadavia,"-45.748800","-67.378768","-45º44'56""","-67º22'44""",INDEC
482,"26",Chubut,"26021",Escalante,"2602103003",Caleta Olivares,Entidad,"0022",Comodoro Rivadavia,"260049",Comodoro Rivadavia,"-45.775158","-67.388849","-45º46'31""","-67º23'20""",INDEC
483,"26",Chubut,"26021",Escalante,"2602103004",Barrio Castelli,Entidad,"0022",Comodoro Rivadavia,"260049",Comodoro Rivadavia,"-45.816390","-67.476419","-45º48'59""","-67º28'35""",INDEC
484,"26",Chubut,"26021",Escalante,"2602103005",Barrio Ciudadela,Entidad,"0022",Comodoro Rivadavia,"260049",Comodoro Rivadavia,"-45.796654","-67.496883","-45º47'48""","-67º29'49""",INDEC
485,"26",Chubut,"26021",Escalante,"2602103006",Barrio Gasoducto,Entidad,"0022",Comodoro Rivadavia,"260049",Comodoro Rivadavia,"-45.794234","-67.504945","-45º47'39""","-67º30'18""",INDEC
486,"26",Chubut,"26021",Escalante,"2602103007",Barrio Güemes,Entidad,"0022",Comodoro Rivadavia,"260049",Comodoro Rivadavia,"-45.822238","-67.492075","-45º49'20""","-67º29'31""",INDEC
487,"26",Chubut,"26021",Escalante,"2602103008",Barrio Laprida,Entidad,"0022",Comodoro Rivadavia,"260049",Comodoro Rivadavia,"-45.828393","-67.542644","-45º49'42""","-67º32'34""",INDEC
488,"26",Chubut,"26021",Escalante,"2602103009",Barrio Manantial Rosales,Entidad,"0022",Comodoro Rivadavia,"260049",Comodoro Rivadavia,"-45.818402","-67.525678","-45º49' 6""","-67º31'32""",INDEC
489,"26",Chubut,"26021",Escalante,"2602103010",Barrio Militar y Aeropuerto,Entidad,"0022",Comodoro Rivadavia,"260049",Comodoro Rivadavia,"-45.791898","-67.470800","-45º47'31""","-67º28'15""",INDEC
490,"26",Chubut,"26021",Escalante,"2602103011",Barrio Próspero Palazzo,Entidad,"0022",Comodoro Rivadavia,"260049",Comodoro Rivadavia,"-45.795736","-67.470573","-45º47'45""","-67º28'14""",INDEC
491,"26",Chubut,"26021",Escalante,"2602103012",Barrio Restinga Alí,Entidad,"0022",Comodoro Rivadavia,"260049",Comodoro Rivadavia,"-45.793157","-67.407842","-45º47'35""","-67º24'28""",INDEC
492,"26",Chubut,"26021",Escalante,"2602103013",Barrio Rodríguez Peña,Entidad,"0022",Comodoro Rivadavia,"260049",Comodoro Rivadavia,"-45.810768","-67.474631","-45º48'39""","-67º28'29""",INDEC
493,"26",Chubut,"26021",Escalante,"2602103014",Barrio Saavedra,Entidad,"0022",Comodoro Rivadavia,"260049",Comodoro Rivadavia,"-45.841511","-67.506424","-45º50'29""","-67º30'23""",INDEC
494,"26",Chubut,"26021",Escalante,"2602103015",Barrio Sarmiento,Entidad,"0022",Comodoro Rivadavia,"260049",Comodoro Rivadavia,"-45.819372","-67.502625","-45º49'10""","-67º30' 9""",INDEC
495,"26",Chubut,"26021",Escalante,"2602103016",Barrio 25 de Mayo,Entidad,"0022",Comodoro Rivadavia,"260049",Comodoro Rivadavia,"-45.826408","-67.463243","-45º49'35""","-67º27'48""",INDEC
496,"26",Chubut,"26021",Escalante,"2602103017",Barrio Villa S.U.P.E.,Entidad,"0022",Comodoro Rivadavia,"260049",Comodoro Rivadavia,"-45.836486","-67.502454","-45º50'11""","-67º30' 9""",INDEC
497,"26",Chubut,"26021",Escalante,"2602103018",Comodoro Rivadavia,Entidad,"0022",Comodoro Rivadavia,"260049",Comodoro Rivadavia,"-45.862564","-67.494001","-45º51'45""","-67º29'38""",INDEC
498,"26",Chubut,"26021",Escalante,"2602103019",Kilómetro 5 - Presidente Ortíz,Entidad,"0022",Comodoro Rivadavia,"260049",Comodoro Rivadavia,"-45.814215","-67.455999","-45º48'51""","-67º27'22""",INDEC
499,"26",Chubut,"26021",Escalante,"2602103020",Kilómetro 8 - Don Bosco,Entidad,"0022",Comodoro Rivadavia,"260049",Comodoro Rivadavia,"-45.789231","-67.431239","-45º47'21""","-67º25'52""",INDEC
500,"26",Chubut,"26021",Escalante,"2602103021",Kilómetro 11 - Cuarteles,Entidad,"0022",Comodoro Rivadavia,"260049",Comodoro Rivadavia,"-45.769426","-67.435857","-45º46'10""","-67º26' 9""",INDEC
501,"26",Chubut,"26021",Escalante,"2602103022",Kilómetro 3 - General Mosconi,Entidad,"0022",Comodoro Rivadavia,"260049",Comodoro Rivadavia,"-45.839671","-67.473896","-45º50'23""","-67º28'26""",INDEC
502,"30",Entre Ríos,"30008",Colón,"3000809001",El Brillante,Entidad,"0227",San José,"300014",San José,"-32.179568","-58.213322","-32º10'46""","-58º12'48""",INDEC
503,"30",Entre Ríos,"30008",Colón,"3000809002",El Colorado,Entidad,"0227",San José,"300014",San José,"-32.181973","-58.194683","-32º10'55""","-58º11'41""",INDEC
504,"30",Entre Ríos,"30008",Colón,"3000809003",San José,Entidad,"0227",San José,"300014",San José,"-32.208495","-58.218672","-32º12'31""","-58º13' 7""",INDEC
505,"30",Entre Ríos,"30015",Concordia,"3001506001",Benito Legerén,Entidad,"0023",Concordia,"300042",Concordia,"-31.434639","-58.071942","-31º26' 5""","-58º 4'19""",INDEC
506,"30",Entre Ríos,"30015",Concordia,"3001506002",Villa Adela,Entidad,"0023",Concordia,"300042",Concordia,"-31.398292","-58.069770","-31º23'54""","-58º 4'11""",INDEC
507,"30",Entre Ríos,"30015",Concordia,"3001506003",Las Tejas,Entidad,"0023",Concordia,"300042",Concordia,"-31.411161","-58.079267","-31º24'40""","-58º 4'45""",INDEC
508,"30",Entre Ríos,"30015",Concordia,"3001506005",Concordia,Entidad,"0023",Concordia,"300042",Concordia,"-31.397451","-58.017203","-31º23'51""","-58º 1' 2""",INDEC
509,"30",Entre Ríos,"30015",Concordia,"3001506007",Villa Zorraquín,Entidad,"0023",Concordia,"300042",Concordia,"-31.321857","-58.014486","-31º19'19""","-58º 0'52""",INDEC
510,"30",Entre Ríos,"30021",Diamante,"3002108001",Diamante,Entidad,"0168",Diamante,"300084",Diamante,"-32.067128","-60.642646","-32º 4' 2""","-60º38'34""",INDEC
511,"30",Entre Ríos,"30021",Diamante,"3002108002",Strobel,Entidad,"0168",Diamante,"300084",Diamante,"-32.053774","-60.612487","-32º 3'14""","-60º36'45""",INDEC
512,"30",Entre Ríos,"30021",Diamante,"3002115001",Estación Puiggari,Entidad,"0543",Villa Libertador San Martín,"300098",Villa Libertador San Martín,"-32.055829","-60.446886","-32º 3'21""","-60º26'49""",INDEC
513,"30",Entre Ríos,"30021",Diamante,"3002115002",Villa Libertador San Martín,Entidad,"0543",Villa Libertador San Martín,"300098",Villa Libertador San Martín,"-32.073929","-60.461041","-32º 4'26""","-60º27'40""",INDEC
514,"30",Entre Ríos,"30084",Paraná,"3008405001",Cerrito,Entidad,"0588",Cerrito,"300294",Cerrito,"-31.582389","-60.073687","-31º34'57""","-60º 4'25""",INDEC
515,"30",Entre Ríos,"30084",Paraná,"3008405002",Pueblo Moreno,Entidad,"0588",Cerrito,"300294",Cerrito,"-31.587004","-60.060161","-31º35'13""","-60º 3'37""",INDEC
543,"46",La Rioja,"46042",Chilecito,"4604201004",Los Sarmientos,Entidad,"0116",Chilecito,"460042",Chilecito,"-29.150930","-67.482468","-29º 9' 3""","-67º28'57""",INDEC
516,"34",Formosa,"34035",Patiño,"3403501001",Bartolomé de las Casas,Entidad,"2910",Bartolomé de las Casas,"349049",Bartolomé de las Casas,"-25.409062","-59.571419","-25º24'33""","-59º34'17""",INDEC
517,"34",Formosa,"34035",Patiño,"3403501002",Comunidad Aborigen Bartolomé de las Casas,Entidad,"2910",Bartolomé de las Casas,"349049",Bartolomé de las Casas,"-25.348680","-59.612231","-25º20'55""","-59º36'44""",INDEC
518,"38",Jujuy,"38014",El Carmen,"3801401001",Aguas Calientes,Entidad,"3034",Aguas Calientes,"386035",Aguas Calientes,"-24.585021","-64.922763","-24º35' 6""","-64º55'22""",INDEC
519,"38",Jujuy,"38014",El Carmen,"3801401002",Fleming,Entidad,"3034",Aguas Calientes,"386035",Aguas Calientes,"-24.587469","-64.923528","-24º35'15""","-64º55'25""",INDEC
520,"38",Jujuy,"38014",El Carmen,"3801401003",Pila Pardo,Entidad,"3034",Aguas Calientes,"386035",Aguas Calientes,"-24.582462","-64.920051","-24º34'57""","-64º55'12""",INDEC
521,"38",Jujuy,"38021",Dr. Manuel Belgrano,"3802107001",Los Nogales,Entidad,"0018",Gran San Salvador de Jujuy,"386028",Yala,"-24.116903","-65.403378","-24º 7' 1""","-65º24'12""",INDEC
522,"38",Jujuy,"38021",Dr. Manuel Belgrano,"3802107002",San Pablo de Reyes,Entidad,"0018",Gran San Salvador de Jujuy,"386028",Yala,"-24.146854","-65.393944","-24º 8'49""","-65º23'38""",INDEC
523,"38",Jujuy,"38021",Dr. Manuel Belgrano,"3802107003",Yala,Entidad,"0018",Gran San Salvador de Jujuy,"386028",Yala,"-24.122362","-65.401576","-24º 7'21""","-65º24' 6""",INDEC
524,"38",Jujuy,"38035",Ledesma,"3803508001",Libertador General San Martín,Entidad,"0066",Libertador Grl. San Martín (Est.Ledesma),"380140",Libertador General San Martín,"-23.813232","-64.793197","-23º48'48""","-64º47'36""",INDEC
525,"38",Jujuy,"38035",Ledesma,"3803508002",Pueblo Ledesma,Entidad,"0066",Libertador Grl. San Martín (Est.Ledesma),"380140",Libertador General San Martín,"-23.834608","-64.789650","-23º50' 5""","-64º47'23""",INDEC
526,"38",Jujuy,"38042",Palpalá,"3804204001",Palpalá,Entidad,"0018",Gran San Salvador de Jujuy,"380154",Palpalá,"-24.259945","-65.206180","-24º15'36""","-65º12'22""",INDEC
527,"38",Jujuy,"38042",Palpalá,"3804204002",Río Blanco,Entidad,"0018",Gran San Salvador de Jujuy,"380154",Palpalá,"-24.229980","-65.234602","-24º13'48""","-65º14' 5""",INDEC
528,"38",Jujuy,"38094",Tilcara,"3809401001",Colonia San José,Entidad,"5743",Colonia San José,"386175",Huacalera,"-23.393797","-65.345214","-23º23'38""","-65º20'43""",INDEC
529,"38",Jujuy,"38094",Tilcara,"3809401002",Yacoraite,Entidad,"5743",Colonia San José,"386175",Huacalera,"-23.387806","-65.344688","-23º23'16""","-65º20'41""",INDEC
530,"38",Jujuy,"38112",Yavi,"3811208001",San José,Entidad,"3016",Yavi,"386273",Yavi,"-22.134603","-65.468156","-22º 8' 5""","-65º28' 5""",INDEC
531,"38",Jujuy,"38112",Yavi,"3811208002",Yavi,Entidad,"3016",Yavi,"386273",Yavi,"-22.131719","-65.461340","-22º 7'54""","-65º27'41""",INDEC
532,"46",La Rioja,"46007",Arauco,"4600701002",Machigasta,Entidad,"0287",Aimogasta,"460007",Arauco,"-28.543538","-66.791109","-28º32'37""","-66º47'28""",INDEC
533,"46",La Rioja,"46007",Arauco,"4600701001",Aimogasta,Entidad,"0287",Aimogasta,"460007",Arauco,"-28.559832","-66.806178","-28º33'35""","-66º48'22""",INDEC
534,"46",La Rioja,"46007",Arauco,"4600701003",San Antonio,Entidad,"0287",Aimogasta,"460007",Arauco,"-28.557858","-66.792339","-28º33'28""","-66º47'32""",INDEC
535,"46",La Rioja,"46028",Coronel Felipe Varela,"4602802001",Guandacol,Entidad,"0848",Guandacol,"460028",Coronel Felipe Varela,"-29.525223","-68.559310","-29º31'31""","-68º33'34""",INDEC
536,"46",La Rioja,"46028",Coronel Felipe Varela,"4602802002",Santa Clara,Entidad,"0848",Guandacol,"460028",Coronel Felipe Varela,"-29.561281","-68.533054","-29º33'41""","-68º31'59""",INDEC
537,"46",La Rioja,"46028",Coronel Felipe Varela,"4602805001",Banda Florida,Entidad,"0554",Villa Unión,"460028",Coronel Felipe Varela,"-29.305840","-68.245140","-29º18'21""","-68º14'43""",INDEC
538,"46",La Rioja,"46028",Coronel Felipe Varela,"4602805002",Villa Unión,Entidad,"0554",Villa Unión,"460028",Coronel Felipe Varela,"-29.316575","-68.227399","-29º18'60""","-68º13'39""",INDEC
539,"46",La Rioja,"46042",Chilecito,"4604201005",San Miguel,Entidad,"0116",Chilecito,"460042",Chilecito,"-29.178243","-67.474422","-29º10'42""","-67º28'28""",INDEC
540,"46",La Rioja,"46042",Chilecito,"4604201001",Anguinán,Entidad,"0116",Chilecito,"460042",Chilecito,"-29.199074","-67.462146","-29º11'57""","-67º27'44""",INDEC
541,"46",La Rioja,"46042",Chilecito,"4604201002",Chilecito,Entidad,"0116",Chilecito,"460042",Chilecito,"-29.162386","-67.499307","-29º 9'45""","-67º29'58""",INDEC
542,"46",La Rioja,"46042",Chilecito,"4604201003",La Puntilla,Entidad,"0116",Chilecito,"460042",Chilecito,"-29.159599","-67.480600","-29º 9'35""","-67º28'50""",INDEC
544,"46",La Rioja,"46119",San Blas de los Sauces,"4611901002",Amuschina,Entidad,"0629",Salicas - San Blas,"460119",San Blas de los Sauces,"-28.583507","-67.183271","-28º35' 1""","-67º10'60""",INDEC
545,"46",La Rioja,"46119",San Blas de los Sauces,"4611901003",Andolucas,Entidad,"0629",Salicas - San Blas,"460119",San Blas de los Sauces,"-28.500475","-67.135145","-28º30' 2""","-67º 8' 7""",INDEC
546,"46",La Rioja,"46119",San Blas de los Sauces,"4611901004",Chaupihuasi,Entidad,"0629",Salicas - San Blas,"460119",San Blas de los Sauces,"-28.351534","-67.072231","-28º21' 6""","-67º 4'20""",INDEC
547,"46",La Rioja,"46119",San Blas de los Sauces,"4611901006",Las Talas,Entidad,"0629",Salicas - San Blas,"460119",San Blas de los Sauces,"-28.441799","-67.119231","-28º26'30""","-67º 7' 9""",INDEC
548,"46",La Rioja,"46119",San Blas de los Sauces,"4611901007",Los Robles,Entidad,"0629",Salicas - San Blas,"460119",San Blas de los Sauces,"-28.425665","-67.110565","-28º25'32""","-67º 6'38""",INDEC
549,"46",La Rioja,"46119",San Blas de los Sauces,"4611901008",Salicas,Entidad,"0629",Salicas - San Blas,"460119",San Blas de los Sauces,"-28.375938","-67.070652","-28º22'33""","-67º 4'14""",INDEC
550,"46",La Rioja,"46119",San Blas de los Sauces,"4611901010",Shaqui,Entidad,"0629",Salicas - San Blas,"460119",San Blas de los Sauces,"-28.480628","-67.128440","-28º28'50""","-67º 7'42""",INDEC
551,"46",La Rioja,"46119",San Blas de los Sauces,"4611901011",Suriyaco,Entidad,"0629",Salicas - San Blas,"460119",San Blas de los Sauces,"-28.539969","-67.156905","-28º32'24""","-67º 9'25""",INDEC
552,"46",La Rioja,"46119",San Blas de los Sauces,"4611901012",Tuyubil,Entidad,"0629",Salicas - San Blas,"460119",San Blas de los Sauces,"-28.578973","-67.197394","-28º34'44""","-67º11'51""",INDEC
553,"46",La Rioja,"46119",San Blas de los Sauces,"4611901001",Alpasinche,Entidad,"0629",Salicas - San Blas,"460119",San Blas de los Sauces,"-28.321597","-67.053909","-28º19'18""","-67º 3'14""",INDEC
554,"46",La Rioja,"46119",San Blas de los Sauces,"4611901005",Cuipán,Entidad,"0629",Salicas - San Blas,"460119",San Blas de los Sauces,"-28.457341","-67.121585","-28º27'26""","-67º 7'18""",INDEC
555,"46",La Rioja,"46119",San Blas de los Sauces,"4611901009",San Blas,Entidad,"0629",Salicas - San Blas,"460119",San Blas de los Sauces,"-28.408314","-67.091935","-28º24'30""","-67º 5'31""",INDEC
556,"50",Mendoza,"50007",Capital,"5000701001",1ra Sección,Entidad,"0004",Gran Mendoza,"500007",Capital,"-32.887623","-68.841032","-32º53'15""","-68º50'28""",INDEC
557,"50",Mendoza,"50007",Capital,"5000701002",2da Sección,Entidad,"0004",Gran Mendoza,"500007",Capital,"-32.891626","-68.840986","-32º53'30""","-68º50'28""",INDEC
558,"50",Mendoza,"50007",Capital,"5000701003",3ra Sección,Entidad,"0004",Gran Mendoza,"500007",Capital,"-32.888306","-68.832093","-32º53'18""","-68º49'56""",INDEC
559,"50",Mendoza,"50007",Capital,"5000701004",4ta Sección,Entidad,"0004",Gran Mendoza,"500007",Capital,"-32.869472","-68.838266","-32º52'10""","-68º50'18""",INDEC
560,"50",Mendoza,"50007",Capital,"5000701005",5ta Sección,Entidad,"0004",Gran Mendoza,"500007",Capital,"-32.887972","-68.853816","-32º53'17""","-68º51'14""",INDEC
561,"50",Mendoza,"50007",Capital,"5000701006",6ta Sección,Entidad,"0004",Gran Mendoza,"500007",Capital,"-32.878893","-68.853257","-32º52'44""","-68º51'12""",INDEC
562,"50",Mendoza,"50007",Capital,"5000701007",7ma Sección,Entidad,"0004",Gran Mendoza,"500007",Capital,"-32.877643","-68.870909","-32º52'40""","-68º52'15""",INDEC
563,"50",Mendoza,"50007",Capital,"5000701009",9na Sección,Entidad,"0004",Gran Mendoza,"500007",Capital,"-32.884139","-68.873450","-32º53' 3""","-68º52'24""",INDEC
564,"50",Mendoza,"50007",Capital,"5000701010",10ma Sección,Entidad,"0004",Gran Mendoza,"500007",Capital,"-32.870788","-68.891752","-32º52'15""","-68º53'30""",INDEC
565,"50",Mendoza,"50007",Capital,"5000701011",11va Sección,Entidad,"0004",Gran Mendoza,"500007",Capital,"-32.890435","-68.911225","-32º53'26""","-68º54'40""",INDEC
566,"50",Mendoza,"50007",Capital,"5000701008",8va Sección,Entidad,"0004",Gran Mendoza,"500007",Capital,"-32.867393","-68.868640","-32º52' 3""","-68º52' 7""",INDEC
567,"50",Mendoza,"50021",Godoy Cruz,"5002101001",Ciudad de Godoy Cruz,Entidad,"0004",Gran Mendoza,"500021",Godoy Cruz,"-32.929648","-68.844932","-32º55'47""","-68º50'42""",INDEC
568,"50",Mendoza,"50021",Godoy Cruz,"5002101003",Las Tortugas,Entidad,"0004",Gran Mendoza,"500021",Godoy Cruz,"-32.945194","-68.823102","-32º56'43""","-68º49'23""",INDEC
569,"50",Mendoza,"50021",Godoy Cruz,"5002101004",Presidente Sarmiento,Entidad,"0004",Gran Mendoza,"500021",Godoy Cruz,"-32.944297","-68.866889","-32º56'39""","-68º52' 1""",INDEC
570,"50",Mendoza,"50021",Godoy Cruz,"5002101005",San Francisco del Monte,Entidad,"0004",Gran Mendoza,"500021",Godoy Cruz,"-32.931735","-68.832662","-32º55'54""","-68º49'58""",INDEC
571,"50",Mendoza,"50021",Godoy Cruz,"5002101002",Gobernador Benegas,Entidad,"0004",Gran Mendoza,"500021",Godoy Cruz,"-32.943063","-68.846636","-32º56'35""","-68º50'48""",INDEC
573,"50",Mendoza,"50028",Guaymallén,"5002802002",Buena Nueva,Entidad,"0004",Gran Mendoza,"500028",Guaymallén,"-32.897054","-68.760465","-32º53'49""","-68º45'38""",INDEC
574,"50",Mendoza,"50028",Guaymallén,"5002802003",Capilla del Rosario,Entidad,"0004",Gran Mendoza,"500028",Guaymallén,"-32.906789","-68.766800","-32º54'24""","-68º46' 0""",INDEC
575,"50",Mendoza,"50028",Guaymallén,"5002802004",Dorrego,Entidad,"0004",Gran Mendoza,"500028",Guaymallén,"-32.918911","-68.833063","-32º55' 8""","-68º49'59""",INDEC
576,"50",Mendoza,"50028",Guaymallén,"5002802005",El Sauce,Entidad,"0004",Gran Mendoza,"500028",Guaymallén,"-32.872864","-68.753756","-32º52'22""","-68º45'14""",INDEC
577,"50",Mendoza,"50028",Guaymallén,"5002802007",Jesús Nazareno,Entidad,"0004",Gran Mendoza,"500028",Guaymallén,"-32.923792","-68.782314","-32º55'26""","-68º46'56""",INDEC
578,"50",Mendoza,"50028",Guaymallén,"5002802008",Las Cañas,Entidad,"0004",Gran Mendoza,"500028",Guaymallén,"-32.911637","-68.817378","-32º54'42""","-68º49' 3""",INDEC
579,"50",Mendoza,"50028",Guaymallén,"5002802009",Nueva Ciudad,Entidad,"0004",Gran Mendoza,"500028",Guaymallén,"-32.893719","-68.808934","-32º53'37""","-68º48'32""",INDEC
580,"50",Mendoza,"50028",Guaymallén,"5002802011",Rodeo de la Cruz,Entidad,"0004",Gran Mendoza,"500028",Guaymallén,"-32.921046","-68.738903","-32º55'16""","-68º44'20""",INDEC
581,"50",Mendoza,"50028",Guaymallén,"5002802012",San Francisco del Monte,Entidad,"0004",Gran Mendoza,"500028",Guaymallén,"-32.922736","-68.793296","-32º55'22""","-68º47'36""",INDEC
